_id,RSN,Property Manager,PCODE,YEAR_REGISTERED,YEAR_EVALUATED,YEAR_BUILT,PROPERTY_TYPE,WARD,WARDNAME,SITE_ADDRESS,CONFIRMED_STOREYS,CONFIRMED_UNITS,EVALUATION_COMPLETED_ON,SCORE,RESULTS_OF_SCORE,NO_OF_AREAS_EVALUATED,ENTRANCE_LOBBY,ENTRANCE_DOORS_WINDOWS,SECURITY,STAIRWELLS,LAUNDRY_ROOMS,INTERNAL_GUARDS_HANDRAILS,GARBAGE_CHUTE_ROOMS,GARBAGE_BIN_STORAGE_AREA,ELEVATORS,STORAGE_AREAS_LOCKERS,INTERIOR_WALL_CEILING_FLOOR,INTERIOR_LIGHTING_LEVELS,GRAFFITI,EXTERIOR_CLADDING,EXTERIOR_GROUNDS,EXTERIOR_WALKWAYS,BALCONY_GUARDS,WATER_PEN_EXT_BLDG_ELEMENTS,PARKING_AREA,OTHER_FACILITIES,GRID,LATITUDE,LONGITUDE,X,Y
183625,4937758,GWLRA RESIDENTIAL,M5B,2021,2021,1940,PRIVATE,11,University-Rosedale,424 YONGE ST,10,210,2021-06-22,81,Evaluation needs to be conducted in 3 years,16,5,4,3,4,4,5,3,3,5,,4,4,5,4,4,4,,4,,,S1145,43.66049901,-79.38397749,314228.403,4835355.504
183626,4915028,FITZROVIA REAL ESTATE INC,M5S,2021,2021,2021,PRIVATE,11,University-Rosedale,484 SPADINA AVE,16,166,2021-06-22,99,Evaluation needs to be conducted in 3 years,17,5,5,5,5,,5,5,4,5,,5,5,5,5,5,5,5,5,5,,S1138,43.65829412,-79.40075314,312789.392,4835153.945
183627,4154086,,M4J,2017,2021,1986,TCHC,14,Toronto-Danforth,266 DONLANDS AVE,8,254,2021-05-14,78,Evaluation needs to be conducted in 2 years,18,4,4,4,3,4,4,4,4,4,,3,4,4,4,4,4,4,4,4,,S1422,43.68965629,-79.3419083,317529.069,4838645.48
183628,4155609,TCH,M4J,2017,2021,1970,TCHC,14,Toronto-Danforth,2 PHIN AVE,3,34,2021-05-14,71,Evaluation needs to be conducted in 2 years,15,3,4,3,3,3,4,,4,,4,3,3,4,4,4,4,,3,,,S1431,43.67880506,-79.3358716,318018.089,4837440.899
183629,4155471,,M8V,2017,2021,1992,TCHC,3,Etobicoke-Lakeshore,98 CAVELL AVE,6,100,2021-05-12,75,Evaluation needs to be conducted in 2 years,16,4,4,4,3,3,4,4,4,4,,2,4,4,5,4,3,,4,,,W0336,43.61618407,-79.49590117,305111.3,4830450.134
183630,4155654,DEL MANAGMENT,M9A,2017,2021,1962,TCHC,3,Etobicoke-Lakeshore,5005 DUNDAS ST W,19,255,2021-05-12,69,Evaluation needs to be conducted in 2 years,18,4,4,4,2,3,4,4,4,3,,2,4,2,4,4,4,3,3,4,,W0321,43.64605397,-79.53072049,302305.928,4833790.048
183631,4155514,,M8V,2017,2021,1960,PRIVATE,3,Etobicoke-Lakeshore,8 LAKE SHORE DR,3,11,2021-05-11,59,Evaluation needs to be conducted in 1 year,14,3,4,2,2,3,3,,3,,,2,3,3,3,4,3,,3,,,W0335,43.60150755,-79.49800545,304945.349,4828840.676
183632,4156070,,M9V,2017,2021,1992,SOCIAL HOUSING,1,Etobicoke North,2715 ISLINGTON AVE,5,80,2021-05-06,86,Evaluation needs to be conducted in 3 years,19,4,4,5,5,4,5,4,5,4,4,4,5,5,4,4,3,4,5,4,,W0126,43.74167369,-79.56639863,299387.542,4844393.19
183633,4156089,,M9A,2017,2021,1977,PRIVATE,2,Etobicoke Centre,290 THE KINGSWAY,4,22,2021-05-06,78,Evaluation needs to be conducted in 2 years,16,4,4,5,4,4,2,,3,,4,4,4,5,4,5,4,,4,2,,W0229,43.66335128,-79.52103367,303087.922,4835711.443
183634,4156447,,M9A,2017,2021,1977,PRIVATE,2,Etobicoke Centre,292 THE KINGSWAY,4,22,2021-05-06,74,Evaluation needs to be conducted in 2 years,16,4,4,5,3,4,2,,3,,4,3,4,5,4,4,4,,4,2,,W0229,43.66349771,-79.52132034,303064.81,4835727.717
183635,4155469,,M8Y,2017,2021,1972,TCHC,3,Etobicoke-Lakeshore,340 ROYAL YORK RD,16,307,2021-05-06,78,Evaluation needs to be conducted in 2 years,17,4,4,4,3,4,4,4,3,4,,3,4,5,4,4,4,4,4,,,W0332,43.61692085,-79.49934613,304837.091,4830553.024
183636,4155274,,M8Y,2019,2021,1958,PRIVATE,3,Etobicoke-Lakeshore,22 RIVERWOOD PKWY,4,44,2021-05-06,69,Evaluation needs to be conducted in 2 years,14,3,4,4,3,4,3,,4,,,2,4,5,3,3,3,,3,,,W0327,43.63880941,-79.48954909,305627.568,4832984.75
183637,4153113,,M6C,2017,2021,1930,PRIVATE,9,Davenport,921 ST CLAIR AVE W,4,23,2021-05-05,78,Evaluation needs to be conducted in 2 years,16,3,3,5,4,4,3,,4,,4,4,3,5,4,4,4,,4,4,,S0928,43.67961297,-79.43432221,310079.882,4837519.722
183638,4153114,STAR PROPERTY MANAGEMENT LTD.,M6C,2017,2021,1957,PRIVATE,9,Davenport,917 ST CLAIR AVE W,3,16,2021-05-05,71,Evaluation needs to be conducted in 2 years,16,3,4,3,3,4,4,,4,,3,3,3,4,3,4,4,,4,4,,S0928,43.67965253,-79.43413366,310095.081,4837524.129
183639,4155504,,M8V,2017,2021,1955,PRIVATE,3,Etobicoke-Lakeshore,2507 LAKE SHORE BLVD W,3,21,2021-05-05,45,Building Audit,15,2,2,2,2,2,2,,3,,2,2,1,3,3,2,3,,3,,,W0336,43.61194373,-79.48947858,305633.594,4830000.121
183640,4155502,TRAVI INC,M8V,2019,2021,1955,PRIVATE,3,Etobicoke-Lakeshore,2517 LAKE SHORE BLVD W,4,42,2021-05-05,57,Evaluation needs to be conducted in 1 year,15,3,3,3,3,3,4,,1,,,2,3,3,3,3,3,3,3,,,W0336,43.61124884,-79.48970287,305617.985,4829937.637
183641,4153161,CHARLES DIEU,M6H,,2021,1926,PRIVATE,9,Davenport,1121 BLOOR ST W,4,11,2021-05-05,68,Evaluation needs to be conducted in 2 years,15,3,3,3,3,,3,,4,,3,3,4,4,4,3,3,,4,4,,S0934,43.6597667,-79.43486802,310037.689,4835314.866
183642,4153112,,M6C,2017,2021,1930,PRIVATE,9,Davenport,923 ST CLAIR AVE W,4,24,2021-05-05,78,Evaluation needs to be conducted in 2 years,16,3,3,5,4,4,3,,4,,4,4,3,5,4,4,4,,4,4,,S0928,43.67956524,-79.43451122,310064.646,4837514.406
183643,4153111,,M6C,2017,2021,1930,PRIVATE,9,Davenport,925 ST CLAIR AVE W,4,24,2021-05-05,74,Evaluation needs to be conducted in 2 years,16,3,3,4,4,3,3,,4,,4,3,3,5,4,4,4,,4,4,,S0928,43.67952949,-79.43471095,310048.545,4837510.422
183644,4153115,,M6H,2017,2021,1930,PRIVATE,9,Davenport,109 GLENHOLME AVE,3,15,2021-05-05,81,Evaluation needs to be conducted in 3 years,14,4,4,4,4,,4,,,,4,4,4,5,4,4,4,,4,4,,S0928,43.67868242,-79.43849617,309743.431,4837416.085
183645,4153116,,M6E,2017,2021,1951,PRIVATE,9,Davenport,1095 ST CLAIR AVE W,3,11,2021-05-05,64,Evaluation needs to be conducted in 1 year,15,3,4,3,3,,3,,3,,,3,3,3,3,3,3,3,4,4,,S0928,43.67825588,-79.4404626,309584.915,4837368.586
183646,4152925,,M6P,2017,2021,1994,TCHC,9,Davenport,11 RANDOLPH AVE,6,95,2021-05-05,74,Evaluation needs to be conducted in 2 years,18,4,3,4,3,4,4,,4,3,4,3,4,5,4,3,4,3,4,4,,S0929,43.65829898,-79.45021102,308800.29,4835150.998
183647,4153153,NJS CAPITAL MANAGEMENT,M6J,2018,2021,1925,PRIVATE,9,Davenport,34 HEYDON PARK RD,3,31,2021-05-05,73,Evaluation needs to be conducted in 2 years,15,4,3,3,3,4,4,,4,,,3,4,5,4,3,3,,4,4,,S0934,43.65297703,-79.42702579,310670.881,4834561.084
183648,4152924,,M6P,2017,2021,1992,TCHC,9,Davenport,77 RANKIN CRES,7,121,2021-05-05,73,Evaluation needs to be conducted in 2 years,19,4,3,4,3,3,4,3,4,4,,3,3,5,4,4,4,3,4,4,3,S0929,43.65834019,-79.44605165,309135.503,4835156.725
183649,4155014,,M6E,2017,2021,1952,PRIVATE,9,Davenport,345 WESTMOUNT AVE,3,29,2021-05-05,71,Evaluation needs to be conducted in 2 years,14,3,4,4,3,,3,,4,,,3,3,4,4,4,3,,4,4,,S0925,43.68441403,-79.4441627,309286.131,4838052.524
183650,4155764,SHAHUKAR PROPERTIES CORP,M8W,2019,2021,1955,PRIVATE,3,Etobicoke-Lakeshore,1 A BIRCHLEA AVE,3,21,2021-05-05,37,Building Audit,14,2,2,3,1,1,2,,2,,,1,1,3,2,2,2,,2,,,W0334,43.59276217,-79.52740543,302571.59,4827869.423
183651,4153108,,M6H,2018,2021,,PRIVATE,9,Davenport,156 BRANDON AVE,4,19,2021-05-05,67,Evaluation needs to be conducted in 2 years,14,3,3,3,3,,4,,3,,,3,3,5,4,3,3,,4,3,,S0927,43.66923324,-79.44593059,309144.453,4836366.875
183652,4153106,MAINSTAY HOUSING,M6N,2017,2021,1992,SOCIAL HOUSING,9,Davenport,223 OSLER ST,4,13,2021-05-05,64,Evaluation needs to be conducted in 1 year,18,3,3,4,3,3,3,3,3,,,3,3,4,3,3,4,4,3,3,3,S0926,43.66976012,-79.45897599,308092.381,4836424.835
183653,4155373,METCAP LIVING MANAGEMENT INC.,M9B,2017,2021,1966,PRIVATE,2,Etobicoke Centre,340 THE EAST MALL,8,77,2021-05-04,84,Evaluation needs to be conducted in 3 years,19,4,5,5,4,5,4,,4,4,4,4,5,5,4,5,3,4,4,3,4,W0234,43.63921198,-79.55727457,300163.043,4833031.882
183654,4155506,2660 LAKESHORE INC.,M8V,2017,2021,1960,PRIVATE,3,Etobicoke-Lakeshore,2660 LAKE SHORE BLVD W,4,15,2021-05-04,70,Evaluation needs to be conducted in 2 years,14,3,4,4,3,4,2,,3,,,4,4,4,3,4,4,,3,,,W0335,43.60357,-79.49393937,305273.579,4829069.811
183655,4155507,,M8V,2017,2021,1955,PRIVATE,3,Etobicoke-Lakeshore,2666 LAKE SHORE BLVD W,4,16,2021-05-04,69,Evaluation needs to be conducted in 2 years,14,3,3,4,4,4,2,,3,,,3,4,4,3,4,4,,3,,,W0335,43.60343955,-79.49428958,305245.309,4829055.318
183656,4356717,GILINDO MARCOCCHIO LIMITED,M8Y,2018,2021,1954,PRIVATE,3,Etobicoke-Lakeshore,177 STEPHEN DR,4,44,2021-05-04,69,Evaluation needs to be conducted in 2 years,17,4,4,4,4,4,4,,3,4,2,2,4,4,3,4,4,3,2,,,W0327,43.6399154,-79.48789232,305761.06,4833089.217
183657,4356415,GILINDO MARCOCCHIO LIMITED,M8Y,2018,2021,1954,PRIVATE,3,Etobicoke-Lakeshore,173 STEPHEN DR,6,13,2021-05-04,79,Evaluation needs to be conducted in 2 years,16,4,4,4,4,4,4,,3,4,,4,3,5,4,4,4,4,4,,,W0327,43.63965354,-79.48750743,305766.456,4833070.166
183658,4155707,DEL MANAGMENT,M9P,2017,2021,1970,TCHC,2,Etobicoke Centre,27 SCARLETTWOOD CRT,3,14,2021-05-04,67,Evaluation needs to be conducted in 2 years,17,3,3,4,2,3,4,,3,,3,3,5,5,3,2,3,4,4,3,,W0224,43.69327402,-79.51600101,303494.335,4839036.572
183659,4885483,BENTALLGREENOAK,,2021,2021,2017,PRIVATE,11,University-Rosedale,2 ST THOMAS ST,26,248,2021-05-04,100,Evaluation needs to be conducted in 3 years,19,5,5,5,5,5,5,5,5,5,5,5,5,5,5,5,5,5,5,5,,S1136,43.66811787,-79.39082961,313588.375,4836246.356
183660,4156285,MANTLER MANAGEMENT LTD.,M9A,2017,2021,1956,PRIVATE,2,Etobicoke Centre,319 THE KINGSWAY,3,21,2021-05-04,74,Evaluation needs to be conducted in 2 years,16,4,4,5,3,4,3,,3,,4,4,3,5,4,3,3,,4,3,,W0229,43.66520749,-79.52351493,302887.889,4835917.715
183661,4155236,GORBAY COMPANY LIMITED,M8Y,2017,2021,1956,PRIVATE,3,Etobicoke-Lakeshore,2 NEWHOLM RD,4,51,2021-05-03,74,Evaluation needs to be conducted in 2 years,17,4,3,4,4,3,4,,4,,3,3,3,5,4,4,3,4,4,4,,W0329,43.63603802,-79.4884023,305720.128,4832676.874
183662,4155267,,M8Y,2017,2021,1954,PRIVATE,3,Etobicoke-Lakeshore,10 HILL HEIGHTS RD,4,34,2021-05-03,69,Evaluation needs to be conducted in 2 years,17,4,4,5,3,2,4,,3,,4,3,3,5,2,4,3,4,3,3,,W0327,43.63907356,-79.4920727,305423.94,4833014.077
183663,4155333,GORBAY COMPANY LIMITED,M9A,2017,2021,1955,PRIVATE,2,Etobicoke Centre,15 ANGLESEY BLVD,3,41,2021-05-03,84,Evaluation needs to be conducted in 3 years,16,4,4,5,4,5,3,,3,,4,5,4,5,5,5,4,,5,2,,W0229,43.66418829,-79.52105157,303086.51,4835804.43
183664,4155317,,M9A,2017,2021,1958,PRIVATE,2,Etobicoke Centre,14-16 ANGLESEY BLVD,4,24,2021-05-03,75,Evaluation needs to be conducted in 2 years,16,3,4,5,3,4,3,,3,,4,3,4,5,4,5,2,,4,4,,W0229,43.66524916,-79.52117214,303076.824,4835922.29
183665,4155257,SHALLOW'S APARTMENTS,M8Y,2017,2021,1968,PRIVATE,3,Etobicoke-Lakeshore,5 HILL HEIGHTS RD,5,36,2021-05-03,83,Evaluation needs to be conducted in 3 years,18,5,5,5,4,4,3,,4,4,4,5,4,4,4,5,5,3,4,3,,W0327,43.63845852,-79.49250194,305389.291,4832945.746
183666,4153389,,M5E,2018,2021,1993,SOCIAL HOUSING,13,Toronto Centre,110 THE ESPLANADE,9,205,2021-05-03,82,Evaluation needs to be conducted in 3 years,17,4,4,5,4,4,4,4,4,4,,4,4,5,4,4,4,4,4,,,S1339,43.64803026,-79.37239123,315078.766,4834016.84
183667,4155246,GORBAY COMPANY LIMITED,M8Y,2017,2021,1956,PRIVATE,3,Etobicoke-Lakeshore,2 KINSDALE BLVD,4,45,2021-05-03,84,Evaluation needs to be conducted in 3 years,17,4,4,4,3,4,4,,3,,4,4,4,5,5,5,5,5,5,3,,W0329,43.63701861,-79.48827296,305733.855,4832772.095
183668,4155238,,M8Y,2017,2021,1953,PRIVATE,3,Etobicoke-Lakeshore,4 KINSDALE BLVD,4,42,2021-05-03,69,Evaluation needs to be conducted in 2 years,16,3,4,5,2,3,4,,4,,,2,3,4,3,4,3,4,3,4,,W0329,43.63618177,-79.48992422,305597.035,4832693.783
183669,4155229,,M8Y,2017,2021,1956,PRIVATE,3,Etobicoke-Lakeshore,5 KINSDALE BLVD,4,22,2021-05-03,74,Evaluation needs to be conducted in 2 years,17,4,5,4,4,3,2,,4,,3,4,4,5,3,5,3,3,4,3,,W0329,43.63535372,-79.49124561,305490.661,4832600.828
183670,4155255,1471147 ONTARIO LTD,M8Y,2017,2021,1954,PRIVATE,3,Etobicoke-Lakeshore,1 HILL HEIGHTS RD,4,30,2021-05-03,79,Evaluation needs to be conducted in 2 years,17,4,5,4,3,4,4,,4,,3,4,4,4,4,5,5,4,4,2,,W0327,43.63806157,-79.49376964,305286.99,4832901.638
183671,4155242,MRF RIDLEY INC.,M8Y,2017,2021,1959,PRIVATE,3,Etobicoke-Lakeshore,10 KINSDALE BLVD,4,23,2021-05-03,71,Evaluation needs to be conducted in 2 years,17,4,4,4,3,4,3,,4,,3,4,4,5,3,2,4,4,3,2,,W0329,43.63581647,-79.49157595,305463.996,4832652.234
183672,4155351,,M9P,2017,2021,1995,SOCIAL HOUSING,2,Etobicoke Centre,1447 ROYAL YORK RD,4,108,2021-05-03,92,Evaluation needs to be conducted in 3 years,17,5,5,5,5,4,5,5,4,4,,4,5,5,5,4,4,,5,4,,W0224,43.68652753,-79.52765502,302554.883,4838286.392
183673,4153515,,M4Y,2017,2021,1994,TCHC,13,Toronto Centre,21 ST JOSEPH ST,5,35,2021-04-30,83,Evaluation needs to be conducted in 3 years,18,4,4,5,5,5,5,4,4,5,,4,4,5,3,4,4,3,3,4,,S1321,43.66563543,-79.38638814,313946.949,4835971.066
183674,4155117,GREENWIN CORP.,M6M,2017,2021,1970,PRIVATE,5,York South-Weston,5 GREENTREE CRT,3,17,2021-04-30,70,Evaluation needs to be conducted in 2 years,16,3,3,5,3,3,3,,4,,3,3,4,5,3,4,3,,4,3,,W0532,43.69226395,-79.47897924,306478.974,4838923.358
183675,4156744,HARVEY KALLES,M6E,2018,2021,1945,PRIVATE,9,Davenport,36 ROSECLIFFE AVE,4,26,2021-04-30,71,Evaluation needs to be conducted in 2 years,13,3,3,5,3,,3,,4,,,3,4,5,3,3,4,,3,,,S0925,43.68396137,-79.44379624,309315.445,4838003.208
183676,4153857,,M4P,2017,2021,1987,TCHC,15,Don Valley West,2567 YONGE ST,6,105,2021-04-30,74,Evaluation needs to be conducted in 2 years,17,3,4,4,3,4,3,4,4,4,,3,2,5,4,4,4,,5,3,,N1526,43.71404819,-79.39939631,312891.412,4841348.24
183677,4153859,,M4N,2017,2021,1937,TCHC,15,Don Valley West,2745 YONGE ST,4,41,2021-04-30,71,Evaluation needs to be conducted in 2 years,15,4,4,4,3,,3,3,4,,,3,3,4,4,3,4,,4,3,,N1526,43.71804419,-79.40010397,312833.856,4841792.101
183678,4153860,TCH,M4N,2017,2021,1970,TCHC,15,Don Valley West,2765 YONGE ST,4,31,2021-04-30,73,Evaluation needs to be conducted in 2 years,16,4,4,5,3,3,3,4,3,,,3,3,5,4,4,3,,4,3,,N1526,43.71848799,-79.40010634,312833.606,4841841.405
183679,4153644,,M4M,2017,2021,1996,SOCIAL HOUSING,14,Toronto-Danforth,1119 GERRARD ST E,5,29,2021-04-30,74,Evaluation needs to be conducted in 2 years,17,4,4,5,4,4,3,4,3,4,,3,4,4,4,3,3,,4,3,,S1438,43.66955058,-79.33319415,318246.299,4836419.586
183680,4155626,TCH,M6A,2017,2021,1957,TCHC,8,Eglinton-Lawrence,5 LEILA LANE,3,31,2021-04-30,69,Evaluation needs to be conducted in 2 years,16,2,4,5,3,4,4,,4,4,,2,3,5,3,2,3,,3,4,,N0823,43.72128235,-79.44523975,309196.449,4842149.332
183681,4153568,,M5A,2017,2021,1992,SOCIAL HOUSING,13,Toronto Centre,205 PARLIAMENT ST,6,16,2021-04-30,89,Evaluation needs to be conducted in 3 years,18,4,5,5,5,5,5,,4,4,,4,5,5,4,4,4,4,4,4,5,S1330,43.65644393,-79.36445706,315717.036,4834953.523
183682,4154566,MPM INC.,M6A,2017,2021,1960,PRIVATE,8,Eglinton-Lawrence,96 MULHOLLAND AVE,3,11,2021-04-30,69,Evaluation needs to be conducted in 2 years,15,2,4,4,2,3,3,,4,,,2,4,5,4,4,4,,4,3,,N0823,43.72070643,-79.45527476,308388.209,4842083.918
183683,4155595,,M5E,2017,2021,1996,TCHC,10,Spadina-Fort York,1 CHURCH ST,13,115,2021-04-30,87,Evaluation needs to be conducted in 3 years,18,4,4,5,4,4,4,5,4,4,,4,5,5,5,4,5,,4,4,4,S1038,43.64703285,-79.37286971,315040.337,4833905.974
183684,4155641,TCH,M6A,2017,2021,1957,TCHC,8,Eglinton-Lawrence,51 BLOSSOMFIELD DR,4,30,2021-04-30,67,Evaluation needs to be conducted in 2 years,15,3,3,4,2,4,3,,3,,,2,3,5,3,3,4,,4,4,,N0823,43.71856484,-79.44814256,308963,4841846.317
183685,4155914,,M6B,2017,2021,1992,TCHC,8,Eglinton-Lawrence,3036 BATHURST ST,7,160,2021-04-30,73,Evaluation needs to be conducted in 2 years,18,4,4,5,3,3,3,4,4,4,,3,3,4,4,3,3,4,4,4,,N0827,43.71850323,-79.42984068,310431.385,4841846.135
183686,4154679,,M5M,2017,2021,1953,PRIVATE,8,Eglinton-Lawrence,2135 AVENUE RD,3,54,2021-04-30,74,Evaluation needs to be conducted in 2 years,16,4,4,5,3,3,4,,3,4,,3,3,5,3,3,4,,4,4,,N0824,43.73916668,-79.42089964,311155.974,4844136.782
183687,4153617,PAUL THORNTON,M4K,2017,2021,1955,PRIVATE,14,Toronto-Danforth,856-858 BROADVIEW AVE,4,23,2021-04-30,66,Evaluation needs to be conducted in 2 years,14,3,3,4,3,3,3,,3,,,3,4,4,3,3,4,,3,,,S1424,43.67928029,-79.35842329,316192.655,4837481.068
183688,4156004,HARVEY KALLES,M6E,2018,2021,1945,PRIVATE,9,Davenport,34 ROSECLIFFE AVE,4,26,2021-04-30,67,Evaluation needs to be conducted in 2 years,15,3,3,5,3,2,3,,4,,2,3,4,5,3,3,4,,3,,,S0925,43.68392009,-79.44397294,309292.746,4837996.205
183689,4270170,MAPLE LEAF PROPERTY MANAGEMENT,M4W,2017,2021,1972,PRIVATE,11,University-Rosedale,88 BLOOR ST E,25,336,2021-04-29,80,Evaluation needs to be conducted in 2 years,17,5,5,5,4,4,3,3,3,3,3,4,5,5,4,4,4,,4,,,S1129,43.67085485,-79.38501175,314057.161,4836551.059
183690,4569135,,M4J,2019,2021,1956,PRIVATE,14,Toronto-Danforth,135 SAMMON AVE,3,11,2021-04-29,66,Evaluation needs to be conducted in 2 years,16,3,4,3,3,3,3,,4,,3,3,3,5,3,3,3,,4,3,,S1422,43.68507918,-79.34235684,317493.881,4838136.918
183691,4152634,,M1L,2017,2021,1959,PRIVATE,21,Scarborough Centre,5 RANNOCK ST,4,28,2021-04-29,78,Evaluation needs to be conducted in 2 years,16,5,3,3,4,3,4,,3,,,3,3,5,5,4,3,5,5,4,,E2131,43.72849771,-79.29918023,320963.145,4842968.046
183692,4153652,,M4K,2018,2021,1922,PRIVATE,14,Toronto-Danforth,796 CARLAW AVE,4,31,2021-04-29,58,Evaluation needs to be conducted in 1 year,13,3,3,4,3,,3,,3,,,3,3,2,3,3,3,,2,,,S1425,43.67884592,-79.34781782,317054.646,4837444.582
183693,4153592,,M4X,2017,2021,1910,PRIVATE,13,Toronto Centre,2 PROSPECT ST,4,15,2021-04-29,71,Evaluation needs to be conducted in 2 years,15,3,4,4,3,2,3,,4,,,3,4,5,3,3,5,3,4,,,S1323,43.66676675,-79.37160224,315139.21,4836098.467
183694,4153646,,M4K,2017,2021,1981,TCHC,14,Toronto-Danforth,369 PAPE AVE,8,139,2021-04-29,81,Evaluation needs to be conducted in 3 years,19,4,4,5,4,4,5,3,3,4,,3,5,4,4,4,4,4,4,4,5,S1430,43.66981173,-79.34071073,317629.833,4836441.05
183695,4288772,,M4M,2017,2021,1996,SOCIAL HOUSING,14,Toronto-Danforth,55 PAPE AVE,5,60,2021-04-29,64,Evaluation needs to be conducted in 1 year,18,3,3,3,3,3,3,3,3,4,,3,4,5,3,3,3,3,3,3,,S1441,43.66046525,-79.33700731,317932.285,4835415.854
183696,4155900,TURTLEDOVE MANAGEMENT,M5T,2017,2021,1895,PRIVATE,11,University-Rosedale,88 OXFORD ST,4,11,2021-04-29,67,Evaluation needs to be conducted in 2 years,14,3,3,4,3,4,2,,4,,,4,3,5,4,3,3,,2,,,S1143,43.65585714,-79.40468473,312472.609,4834882.84
183697,4604174,,M4K,,2021,,PRIVATE,14,Toronto-Danforth,160 FLOYD AVE,3,12,2021-04-29,60,Evaluation needs to be conducted in 1 year,14,3,3,2,3,,3,,3,,,3,2,5,3,3,3,,3,3,,S1421,43.68757738,-79.34848109,316999.391,4838414.515
183698,4154602,HANNAH GROUP,M3H,2017,2021,1950,PRIVATE,6,York Centre,4110 BATHURST ST,3,16,2021-04-29,62,Evaluation needs to be conducted in 1 year,18,3,3,3,3,3,3,,4,1,3,3,4,5,3,3,3,3,3,3,,N0629,43.74586214,-79.43651281,309897.822,4844879.562
183699,4890985,CAPREIT,M6K,2021,2021,2019,PRIVATE,10,Spadina-Fort York,1100 KING ST W,35,506,2021-04-29,99,Evaluation needs to be conducted in 3 years,20,5,5,5,5,5,5,5,5,5,5,5,5,5,5,4,5,5,5,5,5,S1026,,,310980.728,4833129.695
183700,4156726,HOUSELINK COMMUNITY HOMES,M5A,2017,2021,2012,SOCIAL HOUSING,13,Toronto Centre,40 OAK ST,4,87,2021-04-29,65,Evaluation needs to be conducted in 1 year,17,3,4,4,3,4,3,3,3,3,,3,4,2,4,3,3,,3,,3,S1330,,,315649.499,4835505.392
183701,4153049,LA VALETTE PROPERTY MANAGEMENT,M6R,2017,2021,1969,PRIVATE,4,Parkdale-High Park,246 RONCESVALLES AVE,3,22,2021-04-29,76,Evaluation needs to be conducted in 2 years,15,3,4,4,3,3,4,,3,,4,4,4,5,4,4,4,,4,,,S0432,43.64608157,-79.44942849,308864.225,4833793.753
183702,4152915,,M6S,2017,2021,1923,PRIVATE,4,Parkdale-High Park,2520 BLOOR ST W,4,22,2021-04-29,63,Evaluation needs to be conducted in 1 year,16,2,3,4,3,2,3,,3,,,3,3,5,3,3,3,3,3,4,,S0430,43.64805309,-79.48936947,305641.932,4834011.683
183703,4152998,,M6K,2017,2021,1992,TCHC,4,Parkdale-High Park,1447 KING ST W,6,59,2021-04-29,78,Evaluation needs to be conducted in 2 years,19,4,4,5,3,4,4,4,4,4,3,4,5,5,4,3,4,3,3,4,,S0437,43.63667366,-79.43765875,309814.512,4832749.203
183704,4154639,,M2R,2017,2021,1969,PRIVATE,6,York Centre,601 FINCH AVE W,14,170,2021-04-28,64,Evaluation needs to be conducted in 1 year,19,3,4,3,3,2,3,2,3,4,3,3,3,5,3,3,3,4,4,3,,N0624,43.77070839,-79.45171713,308671.446,4847640.014
183705,4255529,,M6H,2017,2021,1910,PRIVATE,9,Davenport,97 NORTHCLIFFE BLVD,3,10,2021-04-28,66,Evaluation needs to be conducted in 2 years,13,3,4,5,3,,3,,3,,,3,3,3,3,3,4,,3,,,S0928,43.67824012,-79.44061192,309572.876,4837366.827
183706,4888759,,M4B,,2021,,PRIVATE,19,Beaches-East York,990 O'CONNOR DR,3,18,2021-04-28,57,Evaluation needs to be conducted in 1 year,14,2,3,4,2,,3,,3,,,2,3,4,3,3,2,,3,3,,S1921,43.70892821,-79.31076693,320034.661,4840791.817
183707,4153710,,M4E,2017,2021,1910,PRIVATE,19,Beaches-East York,2 MAIN ST,3,11,2021-04-28,20,Building Audit,20,1,1,1,1,1,1,1,1,1,1,1,1,1,1,1,1,1,1,1,1,S1935,43.67904692,-79.29837985,321040.936,4837474.429
183708,4332678,,M4Y,,2021,1920,PRIVATE,13,Toronto Centre,36 MAITLAND ST,4,27,2021-04-28,76,Evaluation needs to be conducted in 2 years,16,4,4,3,4,3,4,,4,,4,4,3,5,4,4,4,,4,3,,S1326,43.66454922,-79.38232431,314274.864,4835850.85
183709,4153384,,M5E,,2021,1997,SOCIAL HOUSING,10,Spadina-Fort York,2 MARKET ST,10,141,2021-04-28,81,Evaluation needs to be conducted in 3 years,19,4,4,5,3,5,4,3,5,3,,4,4,5,4,4,4,4,4,3,5,S1038,43.64722354,-79.37151625,315149.491,4833927.328
183710,4250261,HOUSELINK COMMUNITY HOMES,M6K,2017,2021,1987,SOCIAL HOUSING,4,Parkdale-High Park,1245 KING ST W,3,39,2021-04-28,66,Evaluation needs to be conducted in 2 years,17,3,3,4,3,4,3,,3,,4,3,3,5,3,3,3,3,3,3,,S0437,43.63848844,-79.42877829,310530.87,4832951.348
183711,4288126,,M6K,2017,2021,1920,SOCIAL HOUSING,4,Parkdale-High Park,1339 KING ST W,3,10,2021-04-28,84,Evaluation needs to be conducted in 3 years,14,4,4,5,4,,4,,4,,,5,4,5,4,4,4,,4,4,,S0437,43.63771648,-79.4326282,310220.312,4832865.346
183712,4153396,,M5C,2017,2021,1990,TCHC,13,Toronto Centre,60 RICHMOND ST E,8,50,2021-04-28,83,Evaluation needs to be conducted in 3 years,18,4,4,5,4,4,3,4,3,5,,4,4,5,5,5,4,4,4,,4,S1334,43.65253963,-79.37619428,314771.228,4834517.345
183713,4153601,,M4X,2017,2021,1969,PRIVATE,13,Toronto Centre,650 PARLIAMENT ST,22,568,2021-04-28,61,Evaluation needs to be conducted in 1 year,18,4,4,3,2,4,3,3,4,3,,3,3,3,3,2,3,3,3,2,,S1323,43.66961181,-79.37066311,315214.451,4836414.664
183714,4153231,,M5R,2017,2021,1972,SOCIAL HOUSING,11,University-Rosedale,138 PEARS AVE,7,96,2021-04-28,70,Evaluation needs to be conducted in 2 years,14,3,3,3,3,3,3,,4,,,3,3,5,4,4,4,,4,,,S1127,43.67555545,-79.39813233,313033.034,4837080.904
183715,4153395,FRED VICTOR CENTRE,M5A,2017,2021,1900,SOCIAL HOUSING,13,Toronto Centre,147 QUEEN ST E,7,76,2021-04-28,76,Evaluation needs to be conducted in 2 years,18,4,4,5,3,4,3,,4,3,,3,3,5,4,3,4,4,4,4,4,S1334,43.65357466,-79.37267827,315054.67,4834632.752
183716,4888762,O'CONNOR APTS LIMITED,M4B,,2021,1965,PRIVATE,19,Beaches-East York,994 O'CONNOR DR,3,18,2021-04-28,59,Evaluation needs to be conducted in 1 year,14,2,3,4,3,,3,,2,,,2,4,4,3,3,2,,3,3,,S1921,43.70905135,-79.3106659,320042.771,4840805.515
183717,4888795,,M4B,2021,2021,1951,PRIVATE,19,Beaches-East York,1000 O'CONNOR DR,3,12,2021-04-28,64,Evaluation needs to be conducted in 1 year,14,3,4,4,3,,4,,2,,,3,4,4,3,3,3,,3,2,,S1921,43.70927359,-79.31041704,320062.769,4840830.249
183718,4156601,,,2017,2021,2010,TCHC,13,Toronto Centre,1 OAK ST,10,84,2021-04-28,71,Evaluation needs to be conducted in 2 years,17,4,4,4,3,3,3,3,3,3,,3,4,4,4,4,4,,4,3,,S1330,43.66064053,-79.36606947,315613.334,4835427.868
183719,4153571,,M5A,2018,2021,1969,PRIVATE,13,Toronto Centre,210 OAK ST,17,260,2021-04-28,57,Evaluation needs to be conducted in 1 year,18,3,3,4,3,3,4,2,3,2,,2,2,4,2,3,3,2,3,3,,S1330,43.66336807,-79.35846226,316209.596,4835679.79
183720,4153419,,M5T,2017,2021,1979,TCHC,11,University-Rosedale,34 OXFORD ST,5,189,2021-04-28,70,Evaluation needs to be conducted in 2 years,18,3,3,3,4,3,4,3,4,4,,3,4,4,3,4,4,3,3,4,,S1143,43.65689692,-79.40179055,312705.645,4834999.574
183721,4153414,DEEP QUONGG COMMUNITY FUND INC,M5T,2018,2021,1961,TCHC,11,University-Rosedale,2 MURRAY ST,6,86,2021-04-28,74,Evaluation needs to be conducted in 2 years,16,3,3,5,3,4,3,,4,4,,3,4,5,3,4,4,,3,4,,S1144,43.65629937,-79.39093867,313581.33,4834933.378
183722,4156547,GREENWIN,,2017,2021,2010,TCHC,13,Toronto Centre,92 CARLTON ST,12,110,2021-04-28,67,Evaluation needs to be conducted in 2 years,18,4,4,3,3,3,3,3,3,4,4,3,3,3,3,4,4,,3,3,,S1326,43.66229438,-79.37821393,314606.727,4835600.825
183723,4152719,,M1P,2017,2021,1960,PRIVATE,21,Scarborough Centre,1477 BIRCHMOUNT RD,3,21,2021-04-28,79,Evaluation needs to be conducted in 2 years,15,4,4,4,4,,4,,3,,,5,5,4,3,4,4,5,4,2,,E2128,43.75694011,-79.28821677,321838.336,4846130.019
183724,4153178,,M5S,2017,2021,1919,PRIVATE,11,University-Rosedale,334 BLOOR ST W,3,24,2021-04-28,71,Evaluation needs to be conducted in 2 years,14,3,3,5,3,3,3,,4,,,3,4,5,3,4,4,,3,,,S1126,43.66683908,-79.40425328,312505.959,4836102.924
183725,4153613,,M4K,2017,2021,1950,PRIVATE,14,Toronto-Danforth,812 BROADVIEW AVE,3,24,2021-04-28,60,Evaluation needs to be conducted in 1 year,15,3,3,1,3,3,3,,3,,,3,3,4,3,3,3,,4,,3,S1424,43.67786345,-79.35881738,316168.205,4837332.934
183726,4153417,HOMES FIRST SOCIETY,M5T,2017,2021,1885,SOCIAL HOUSING,11,University-Rosedale,87 BELLEVUE AVE,3,28,2021-04-28,71,Evaluation needs to be conducted in 2 years,14,3,3,5,3,3,3,,3,,,3,4,5,4,4,3,,4,,,S1143,43.65618786,-79.40360456,312559.687,4834919.685
183727,4153418,NFPA GROUP,M5T,2018,2021,1988,PRIVATE,11,University-Rosedale,99 BELLEVUE AVE,4,16,2021-04-28,68,Evaluation needs to be conducted in 2 years,16,3,3,4,3,,3,3,3,,,3,4,3,4,4,4,3,4,3,,S1143,43.6567019,-79.40390811,312535.134,4834976.766
183728,4333863,GREENWIN CORP.,M1E,2018,2021,1976,SOCIAL HOUSING,24,Scarborough-Guildwood,2877 A ELLESMERE RD,12,126,2021-04-28,87,Evaluation needs to be conducted in 3 years,18,5,5,5,5,5,5,4,4,,4,3,5,5,4,3,4,,4,3,5,E2428,43.78069214,-79.20319343,328559.122,4848999.52
183729,4153624,,M4M,2019,2021,1995,SOCIAL HOUSING,14,Toronto-Danforth,802 EASTERN AVE,3,16,2021-04-28,59,Evaluation needs to be conducted in 1 year,16,2,3,4,2,,3,,3,3,,2,2,4,3,3,3,3,4,3,,S1441,43.66163795,-79.32986223,318506.508,4835534.706
183730,4153661,DMS PROPERTY MANAGEMENT LTD.,M4J,2017,2021,1985,SOCIAL HOUSING,14,Toronto-Danforth,51 DONLANDS AVE,5,53,2021-04-28,71,Evaluation needs to be conducted in 2 years,18,4,4,5,3,3,4,3,4,4,,3,4,3,3,3,4,3,3,4,,S1427,43.68117754,-79.3372647,317905.252,4837704.244
183731,4154656,AVENUE ROAD INVESTMENT LIMITED,M5M,2017,2021,1951,PRIVATE,8,Eglinton-Lawrence,312 DOUGLAS AVE,3,11,2021-04-28,64,Evaluation needs to be conducted in 1 year,15,2,4,3,3,3,3,,3,,,2,4,5,3,3,4,,3,3,,N0824,43.72386256,-79.41672574,311493.898,4842436.978
183732,4152995,,M6K,2017,2021,1989,TCHC,4,Parkdale-High Park,75 DOWLING AVE,7,138,2021-04-28,68,Evaluation needs to be conducted in 2 years,18,4,4,5,3,4,3,,3,3,3,4,4,3,3,3,3,3,3,3,,S0437,43.63506211,-79.43760141,309819.008,4832571.13
183733,4152997,METCAP LIVING MANAGEMENT INC,M6K,2018,2021,1965,PRIVATE,4,Parkdale-High Park,115 DOWLING AVE,9,70,2021-04-28,82,Evaluation needs to be conducted in 3 years,17,4,4,5,4,4,4,,4,4,,4,4,5,4,4,4,4,4,4,,S0437,43.63635265,-79.43806473,309781.782,4832713.518
183734,4221299,,M6H,2017,2021,1950,PRIVATE,9,Davenport,1094 COLLEGE ST,3,19,2021-04-28,81,Evaluation needs to be conducted in 3 years,15,4,5,5,4,4,4,,3,,,4,4,5,4,3,4,,4,4,,S0934,43.6528825,-79.43212786,310259.331,4834550.221
183735,4154290,,M6M,2017,2021,1992,SOCIAL HOUSING,5,York South-Weston,2214 KEELE ST,7,89,2021-04-28,77,Evaluation needs to be conducted in 2 years,20,3,4,5,3,3,4,3,3,4,3,4,4,5,4,4,4,5,4,4,4,W0529,43.70092092,-79.47692203,306644.572,4839885.152
183736,4154311,SULIN PROPERTY GROUP,M6L,2017,2021,1958,PRIVATE,5,York South-Weston,2595 KEELE ST,3,23,2021-04-28,75,Evaluation needs to be conducted in 2 years,16,4,3,5,4,3,4,,3,,,4,3,5,4,4,4,3,4,3,,W0523,43.71842644,-79.47949393,306436.812,4841829.878
183737,4154611,TCH,M3H,2017,2021,1989,TCHC,6,York Centre,2 FAYWOOD BLVD,3,40,2021-04-28,66,Evaluation needs to be conducted in 2 years,18,3,4,3,3,3,3,3,3,4,,3,4,5,3,3,3,3,3,3,,N0629,43.73531443,-79.44696969,309056.09,4843708.153
183738,4915493,K&G APARTMENT HOLDINGS INC,M4P,2021,2021,2020,PRIVATE,15,Don Valley West,18 ERSKINE AVE,35,315,2021-04-28,100,Evaluation needs to be conducted in 3 years,18,5,5,5,5,,5,5,5,5,,5,5,5,5,5,5,5,5,5,5,N1526,,,312961.435,4841057.89
183739,4154142,,M4J,2017,2021,1945,PRIVATE,14,Toronto-Danforth,9 ELMSDALE RD,4,38,2021-04-28,78,Evaluation needs to be conducted in 2 years,16,4,4,4,4,4,4,,4,,4,3,4,5,3,4,4,,3,4,,S1422,43.6947033,-79.343835,317372.708,4839205.914
183740,4155268,SKYVIEW MANAGEMENT LTD.,M8Y,2017,2021,1957,PRIVATE,3,Etobicoke-Lakeshore,8 HILL HEIGHTS RD,4,27,2021-04-28,78,Evaluation needs to be conducted in 2 years,16,4,4,4,4,4,4,,4,,,3,4,5,4,4,4,3,3,4,,W0327,43.63910021,-79.49275827,305368.622,4833017.033
183741,4153381,,M5E,2017,2021,1983,TCHC,10,Spadina-Fort York,55 THE ESPLANADE,12,166,2021-04-28,78,Evaluation needs to be conducted in 2 years,18,4,4,5,3,4,4,4,4,4,,4,3,5,4,4,4,3,3,4,,S1038,43.64621241,-79.37472761,314890.596,4833814.598
183742,4155640,TCH,M6A,2017,2021,1957,TCHC,8,Eglinton-Lawrence,20 VARNA DR,3,31,2021-04-28,67,Evaluation needs to be conducted in 2 years,15,3,3,5,2,3,3,,4,,,2,3,5,3,3,3,,4,4,,N0823,43.71944196,-79.43997932,309620.709,4841944.21
183743,4152826,,M1G,2017,2021,1970,PRIVATE,24,Scarborough-Guildwood,20 TUXEDO CRT,15,210,2021-04-28,77,Evaluation needs to be conducted in 2 years,18,3,4,4,3,4,4,3,5,4,,3,5,5,3,4,4,3,4,4,,E2422,43.7801851,-79.23018669,326502.803,4848725.927
183744,4154408,,M3M,2017,2021,1996,SOCIAL HOUSING,6,York Centre,1206 WILSON AVE,5,68,2021-04-28,71,Evaluation needs to be conducted in 2 years,18,4,4,4,3,3,3,4,4,3,,3,4,5,3,3,4,,4,3,3,N0627,43.72530874,-79.48942496,305636.238,4842595.268
183745,4155823,TCH,,2017,2021,2009,TCHC,13,Toronto Centre,246 SACKVILLE ST,8,61,2021-04-28,76,Evaluation needs to be conducted in 2 years,18,4,4,4,3,3,3,4,4,4,,3,4,4,4,4,4,,4,4,4,S1330,43.66030863,-79.36336914,315800.712,4835394.596
183746,4153192,,M5R,2018,2021,1963,PRIVATE,11,University-Rosedale,68-72 SPADINA RD,11,157,2021-04-28,76,Evaluation needs to be conducted in 2 years,17,4,4,5,2,3,3,,4,4,3,4,5,5,4,3,3,5,4,,,S1126,43.67043226,-79.4055781,312395.552,4836492.651
183747,4155601,,M5A,2017,2021,1964,TCHC,13,Toronto Centre,275 SHUTER ST,16,299,2021-04-28,61,Evaluation needs to be conducted in 1 year,18,3,3,4,3,3,3,2,3,3,,3,4,3,3,3,3,3,3,,3,S1329,43.65574079,-79.36788599,315440.851,4834874.003
183748,4153559,,M5A,2017,2021,1982,TCHC,10,Spadina-Fort York,15 SCADDING AVE,9,251,2021-04-28,83,Evaluation needs to be conducted in 3 years,18,4,4,5,4,5,3,4,5,5,,4,4,5,4,4,4,4,4,3,,S1039,43.64858969,-79.36678275,315530.851,4834080.659
183749,4153226,APLOMB PROPERTIES INC,M5R,2017,2021,1967,PRIVATE,11,University-Rosedale,191 ST GEORGE ST,10,105,2021-04-28,77,Evaluation needs to be conducted in 2 years,18,4,4,5,5,4,5,4,4,3,,3,3,5,3,4,4,3,3,3,,S1127,43.67156681,-79.40110265,312759.444,4836628.436
183750,4154436,RAFAELLO PLACE,M3M,2017,2021,1970,PRIVATE,6,York Centre,2425 JANE ST,20,154,2021-04-28,67,Evaluation needs to be conducted in 2 years,19,4,4,4,3,3,3,3,3,4,3,3,4,5,3,3,3,3,3,3,,N0627,43.73139171,-79.51031005,303954.001,4843270.091
183751,4155800,TCH,M5A,2017,2021,1993,TCHC,13,Toronto Centre,140 THE ESPLANADE,7,102,2021-04-28,66,Evaluation needs to be conducted in 2 years,17,3,3,3,3,3,3,3,3,3,,3,4,4,4,4,4,,3,3,,S1339,43.64854843,-79.37025343,315250.877,4834075.626
183752,4902355,,M4B,,2021,,PRIVATE,19,Beaches-East York,2902 ST CLAIR AVE E,3,12,2021-04-28,74,Evaluation needs to be conducted in 2 years,14,3,4,4,3,,3,,4,,,3,3,5,5,4,3,,4,4,,S1924,43.70813449,-79.30184331,320754.014,4840705.283
183753,4154175,,M4H,2017,2021,1988,TCHC,15,Don Valley West,12 THORNCLIFFE PARK DR,11,219,2021-04-27,68,Evaluation needs to be conducted in 2 years,18,3,4,5,3,3,4,3,3,2,,3,3,5,3,3,3,3,4,4,,N1533,43.70452931,-79.34826044,317013.706,4840297.828
183754,4155588,,M6K,2017,2021,1974,TCHC,4,Parkdale-High Park,85 SPENCER AVE,7,57,2021-04-27,81,Evaluation needs to be conducted in 3 years,18,4,4,5,3,4,3,,4,5,4,3,4,5,4,4,4,4,5,4,,S0437,43.63733009,-79.43014771,310420.221,4832823.529
183755,4575691,TLR PROPERTY MANAGEMENT LP,,2019,2021,2018,PRIVATE,13,Toronto Centre,25 SELBY ST,51,503,2021-04-27,99,Evaluation needs to be conducted in 3 years,18,5,5,5,5,,5,5,5,5,5,5,5,5,5,5,4,,5,5,5,S1322,,,314705.756,4836585.294
183756,4155858,,M5R,2017,2021,1905,PRIVATE,11,University-Rosedale,41 SPADINA RD,4,24,2021-04-27,66,Evaluation needs to be conducted in 2 years,17,4,4,5,3,3,3,,3,3,3,3,3,5,3,3,3,2,3,,,S1127,43.66884349,-79.40427699,312503.8,4836325.6
183757,4155652,TCH,M6B,2017,2021,1974,TCHC,8,Eglinton-Lawrence,855 ROSELAWN AVE,17,253,2021-04-27,64,Evaluation needs to be conducted in 1 year,18,3,3,5,2,3,3,3,4,3,,3,3,5,3,2,3,4,3,3,,N0831,43.70187944,-79.44147707,309501.122,4839993.968
183758,4153867,,M4N,2017,2021,1990,TCHC,15,Don Valley West,3179 YONGE ST,5,110,2021-04-27,90,Evaluation needs to be conducted in 3 years,18,4,4,5,4,4,5,4,4,5,,3,4,5,5,5,5,5,5,5,,N1525,43.72733677,-79.40205766,312675.228,4842824.244
183759,4154612,,M3H,2017,2021,1965,PRIVATE,6,York Centre,20 WILMINGTON AVE,4,13,2021-04-27,65,Evaluation needs to be conducted in 1 year,17,4,4,3,4,3,3,,3,,3,4,2,5,3,3,3,3,3,2,,N0624,43.75349018,-79.45330722,308544.767,4845726.114
183760,4250622,MANTLER MANAGEMENT LTD.,M6G,2017,2021,1913,PRIVATE,11,University-Rosedale,1 A VERMONT AVE,3,22,2021-04-27,70,Evaluation needs to be conducted in 2 years,16,4,4,5,3,4,3,,4,,3,4,2,4,3,3,3,4,3,,,S1125,43.67190476,-79.41424394,311699.702,4836664.832
183761,4221313,,M5R,2017,2021,1920,PRIVATE,11,University-Rosedale,110 WALMER RD,4,10,2021-04-27,70,Evaluation needs to be conducted in 2 years,16,4,4,3,3,3,3,,5,,,3,3,5,4,3,3,3,3,4,,S1126,43.67149195,-79.4073444,312256.124,4836619.554
183762,4155269,,M8Y,2017,2021,1964,PRIVATE,3,Etobicoke-Lakeshore,6 HILL HEIGHTS RD,4,30,2021-04-27,79,Evaluation needs to be conducted in 2 years,17,4,4,4,4,3,4,,4,,3,4,4,5,4,4,4,4,4,4,,W0327,43.63902311,-79.49314947,305337.056,4833008.466
183763,4154427,LE THAI INVESTMENT INC,M3M,2018,2021,1968,PRIVATE,6,York Centre,2900 KEELE ST,3,12,2021-04-27,55,Evaluation needs to be conducted in 1 year,16,3,3,3,3,2,3,,2,,,3,2,5,2,2,3,2,3,3,,N0627,43.73394485,-79.48414759,306061.54,4843553.804
183764,4888798,,M4B,2021,2021,1958,PRIVATE,19,Beaches-East York,1004 O'CONNOR DR,3,12,2021-04-27,54,Evaluation needs to be conducted in 1 year,14,3,4,2,2,,3,,2,,,3,2,3,3,3,3,,3,2,,S1921,43.70939155,-79.31032697,320069.997,4840843.37
183765,4888799,,M4B,,2021,,PRIVATE,19,Beaches-East York,1008 O'CONNOR DR,3,12,2021-04-27,56,Evaluation needs to be conducted in 1 year,14,2,3,3,2,,3,,3,,,2,3,4,3,2,2,,4,3,,S1921,43.7095272,-79.31021781,320078.759,4840858.46
183766,4888801,STONEGATE PROPERTY MANAGEMENT,M4B,2021,2021,1954,PRIVATE,19,Beaches-East York,1012 O'CONNOR DR,3,12,2021-04-27,51,Evaluation needs to be conducted in 1 year,14,2,4,3,2,,3,,2,,,2,3,3,3,2,2,,3,2,,S1921,43.70965181,-79.31011714,320086.84,4840872.322
183767,4888802,,M4B,,2021,,PRIVATE,19,Beaches-East York,1016 O'CONNOR DR,3,12,2021-04-27,65,Evaluation needs to be conducted in 1 year,15,3,4,3,3,4,3,,4,,,4,3,4,3,3,3,,3,2,,S1921,43.70978246,-79.31001934,320094.688,4840886.855
183768,4888803,,M4B,,2021,,PRIVATE,19,Beaches-East York,1020 O'CONNOR DR,3,12,2021-04-27,71,Evaluation needs to be conducted in 2 years,14,4,4,4,4,,4,,3,,,4,4,5,3,3,3,,3,2,,S1921,43.70991711,-79.30991582,320102.996,4840901.833
183769,4888804,,M4B,,2021,,PRIVATE,19,Beaches-East York,1024 O'CONNOR DR,3,12,2021-04-27,70,Evaluation needs to be conducted in 2 years,14,4,4,3,4,,3,,2,,,4,4,5,3,4,3,,4,2,,S1921,43.71001882,-79.30983851,320109.201,4840913.146
183770,4153628,YWCA,M4M,2017,2021,1988,SOCIAL HOUSING,14,Toronto-Danforth,15 PAPE AVE,5,77,2021-04-27,78,Evaluation needs to be conducted in 2 years,17,4,4,5,3,3,3,4,4,3,,3,4,5,4,4,4,,4,5,,S1441,43.65942979,-79.33614624,318000.182,4835288.371
183771,4156586,,M4G,2017,2021,1960,PRIVATE,15,Don Valley West,855 MILLWOOD RD,3,22,2021-04-27,60,Evaluation needs to be conducted in 1 year,15,2,3,4,3,,3,,3,,3,2,2,5,3,3,3,2,4,,,N1535,43.70415083,-79.36627859,315561.894,4840252.385
183772,4152835,MORNELLE COURT APARTMENTS,M1E,2017,2021,1976,PRIVATE,24,Scarborough-Guildwood,70 MORNELLE CRT,16,264,2021-04-27,78,Evaluation needs to be conducted in 2 years,18,4,4,5,4,3,4,3,4,4,,3,3,5,4,4,4,4,4,4,,E2423,43.78685384,-79.19780514,329106.341,4849476.751
183773,4154723,,M2R,2017,2021,1972,TCHC,6,York Centre,6250 BATHURST ST,14,389,2021-04-27,64,Evaluation needs to be conducted in 1 year,19,4,3,3,3,3,3,3,3,3,3,3,4,5,3,3,3,3,3,3,,N0622,43.79163957,-79.44619559,309114.424,4849965.666
183774,4227299,1013434 ONTARIO LIMITED,M3H,2017,2021,1962,PRIVATE,6,York Centre,4100 BATHURST ST,5,37,2021-04-27,71,Evaluation needs to be conducted in 2 years,18,4,4,4,4,3,4,,3,3,3,3,4,5,4,3,4,3,3,3,,N0629,43.74549277,-79.43642455,309904.96,4844838.53
183775,4154603,CALETA CAPITAL,M3H,2017,2021,1964,PRIVATE,6,York Centre,4160 BATHURST ST,7,67,2021-04-27,66,Evaluation needs to be conducted in 2 years,19,4,3,3,4,3,4,4,3,3,2,3,4,5,3,3,3,3,3,3,,N0629,43.74785595,-79.43705737,309853.799,4845101.032
183776,4154700,,M3H,2017,2021,1980,TCHC,6,York Centre,4455 BATHURST ST,14,301,2021-04-27,74,Evaluation needs to be conducted in 2 years,19,4,4,3,4,4,4,3,3,4,,4,4,5,3,4,4,3,3,3,4,N0624,43.75834746,-79.43864122,309743.646,4846266.068
183777,4155114,,M6M,2017,2021,1950,PRIVATE,5,York South-Weston,79 CLEARVIEW HTS,4,54,2021-04-27,69,Evaluation needs to be conducted in 2 years,16,3,4,5,3,3,4,,3,,3,3,3,4,3,3,4,,4,3,,W0532,43.69229479,-79.48244037,306199.702,4838927.692
183778,4155113,,M6M,2017,2021,1950,PRIVATE,5,York South-Weston,81 CLEARVIEW HTS,3,40,2021-04-27,74,Evaluation needs to be conducted in 2 years,16,4,4,5,4,3,4,,4,,3,4,3,4,3,3,4,,4,3,,W0532,43.69244722,-79.48271118,306177.868,4838944.622
183779,4155728,,M6G,2018,2021,1970,PRIVATE,11,University-Rosedale,318 CLINTON ST,3,12,2021-04-27,69,Evaluation needs to be conducted in 2 years,16,3,3,5,3,3,3,,3,,,3,4,5,4,3,4,3,3,3,,S1133,43.66251981,-79.417006,311478.057,4835622.035
183780,4156401,MODEL BUILDING MAINTENANCE INC,M8Y,2017,2021,1953,PRIVATE,3,Etobicoke-Lakeshore,10 CROWN HILL PL,5,26,2021-04-27,75,Evaluation needs to be conducted in 2 years,17,4,4,4,4,4,4,,4,,4,3,3,4,4,4,3,4,3,4,,W0327,43.63947627,-79.49164782,305457.959,4833059.771
183781,4156115,MODEL BUILDING MAINTENANCE INC,M8Y,2017,2021,1953,PRIVATE,3,Etobicoke-Lakeshore,11 CROWN HILL PL,5,26,2021-04-27,75,Evaluation needs to be conducted in 2 years,17,4,4,4,4,4,4,,4,,4,3,3,4,4,4,3,4,3,4,,W0327,43.63963643,-79.49173829,305450.658,4833077.563
183782,4250554,IMPRESSIONS GROUP,M5S,2018,2021,1898,PRIVATE,11,University-Rosedale,409 HURON ST,4,42,2021-04-27,65,Evaluation needs to be conducted in 1 year,16,3,4,4,3,3,3,,2,,4,3,4,4,3,3,3,,3,3,,S1135,43.6666105,-79.40082431,312782.257,4836078.804
183783,4152695,GREENWIN CORP.,M1K,2017,2021,1971,PRIVATE,21,Scarborough Centre,10 IONVIEW RD,6,62,2021-04-27,83,Evaluation needs to be conducted in 3 years,18,5,5,4,5,4,5,5,5,5,,3,4,5,3,4,3,5,3,2,,E2133,43.73203281,-79.27180037,323167.844,4843366.427
183784,4152993,METCAP LIVING MANAGEMENT INC,M6K,2017,2021,1977,PRIVATE,4,Parkdale-High Park,96 JAMESON AVE,6,72,2021-04-27,68,Evaluation needs to be conducted in 2 years,18,3,4,5,3,3,3,3,4,3,,4,4,4,3,3,3,3,3,3,,S0437,43.63476362,-79.43543871,309993.796,4832537.146
183785,4152992,OZ PROPERTY MANAGEMENT LTD,M6K,2018,2021,1960,PRIVATE,4,Parkdale-High Park,100 JAMESON AVE,10,80,2021-04-27,60,Evaluation needs to be conducted in 1 year,17,3,3,4,3,3,3,,2,2,,3,3,5,3,3,3,3,3,2,,S0437,43.63511919,-79.43565646,309976.196,4832576.633
183786,4152983,JAMESON AVE RENTAL INC,M6K,2017,2021,1968,PRIVATE,4,Parkdale-High Park,109 JAMESON AVE,7,118,2021-04-27,62,Evaluation needs to be conducted in 1 year,17,3,4,5,2,3,3,,3,3,,2,3,5,3,3,3,3,3,2,,S0437,43.63577526,-79.43514415,310017.478,4832649.546
183787,4152760,FIRM CAPITAL PROPERTIES INC,M1P,2017,2021,1950,PRIVATE,21,Scarborough Centre,1385 MIDLAND AVE,13,144,2021-04-26,79,Evaluation needs to be conducted in 2 years,18,5,3,5,3,4,5,4,5,4,,3,4,5,3,4,4,4,3,3,,E2134,43.75063633,-79.26384288,323803.012,4845434.954
183788,4288472,WIGWAMEN INCORPORATED,,2018,2021,2016,SOCIAL HOUSING,13,Toronto Centre,75 COOPERAGE ST,12,145,2021-04-26,94,Evaluation needs to be conducted in 3 years,18,5,4,5,5,5,5,4,4,5,,4,5,5,5,4,5,,5,5,5,S1336,,,316341.205,4834605.327
183789,4152750,CANDO APARTMENTS LTD.,M1K,2017,2021,1954,PRIVATE,21,Scarborough Centre,30 GILDER DR,14,192,2021-04-26,86,Evaluation needs to be conducted in 3 years,19,5,3,5,5,4,5,5,5,5,5,4,3,5,3,5,4,3,4,4,,E2134,43.73714583,-79.25653121,324396.207,4843937.937
183790,4154887,LINWOOD MANAGEMENT CORPORATION,M4A,2017,2021,1960,PRIVATE,16,Don Valley East,48 ECCLESTON DR,4,69,2021-04-25,76,Evaluation needs to be conducted in 2 years,18,4,4,4,4,3,4,,4,4,4,3,3,4,4,4,3,4,4,4,,N1628,43.72796581,-79.31798873,319448.016,4842905.497
183791,4154823,COMPTEN MANAGEMENT INC.,M2J,2017,2021,1971,PRIVATE,17,Don Valley North,2600 DON MILLS RD,19,226,2021-04-25,68,Evaluation needs to be conducted in 2 years,18,4,4,4,3,3,3,2,4,4,,3,2,5,3,4,3,3,4,3,,N1727,43.77625096,-79.34860618,316971.632,4848264.765
183792,4154822,NUSPOR INVESTMENTS,M2J,2017,2021,1969,PRIVATE,17,Don Valley North,25 LEITH HILL RD,15,147,2021-04-25,73,Evaluation needs to be conducted in 2 years,19,4,3,4,2,4,4,3,4,4,4,3,3,5,3,4,4,4,4,3,,N1727,43.77639205,-79.3495861,316892.719,4848280.297
183793,4154848,,M2H,2017,2021,1980,TCHC,17,Don Valley North,4000 DON MILLS RD,6,397,2021-04-24,76,Evaluation needs to be conducted in 2 years,18,3,4,3,4,4,4,4,3,4,,3,3,5,4,4,4,4,4,4,,N1722,43.81037796,-79.36147583,315929.111,4852055.344
183794,4155651,TCH,M3A,2017,2021,1962,TCHC,16,Don Valley East,14 RAYOAK DR,8,63,2021-04-24,67,Evaluation needs to be conducted in 2 years,17,4,3,3,2,3,4,3,3,3,,3,4,4,3,3,4,,4,4,,N1625,43.75984788,-79.3194128,319325.589,4846447.109
183795,4156469,PRECISION PROPERTY MANAGEMENT,M1H,2018,2021,1992,SOCIAL HOUSING,24,Scarborough-Guildwood,3379 LAWRENCE AVE E,6,48,2021-04-23,78,Evaluation needs to be conducted in 2 years,19,4,4,4,3,3,5,4,3,4,,2,4,5,5,4,3,5,4,4,4,E2429,43.75782219,-79.2338166,326218.534,4846240.572
183796,4153552,,M4M,2017,2021,1988,SOCIAL HOUSING,14,Toronto-Danforth,841 QUEEN ST E,3,36,2021-04-23,62,Evaluation needs to be conducted in 1 year,17,3,3,4,3,3,3,3,3,2,,3,3,4,3,4,3,,3,,3,S1440,43.66003778,-79.34386069,317377.858,4835354.725
183797,4155069,,M6E,2017,2021,1959,PRIVATE,9,Davenport,2204 DUFFERIN ST,4,28,2021-04-23,70,Evaluation needs to be conducted in 2 years,16,3,4,4,3,3,4,,3,,,3,3,5,3,3,4,4,4,3,,S0922,43.69044271,-79.44838365,308945.447,4838722.081
183798,4287030,SMARTSELL MARKETING,M6K,2018,2021,1917,PRIVATE,4,Parkdale-High Park,193 DOWLING AVE,5,16,2021-04-23,71,Evaluation needs to be conducted in 2 years,14,4,3,4,4,4,3,,3,,,4,4,5,3,3,3,,3,,,S0436,43.63982041,-79.43958903,309658.458,4833105.204
183799,4153576,,M4M,2017,2021,1973,TCHC,14,Toronto-Danforth,859 DUNDAS ST E,4,29,2021-04-23,69,Evaluation needs to be conducted in 2 years,17,3,4,4,3,3,3,3,4,3,,3,3,4,4,4,4,,4,,3,S1434,43.66211596,-79.35167947,316746.84,4835584.466
183800,4167459,TCH,M5A,2017,2021,2006,TCHC,13,Toronto Centre,176 THE ESPLANADE,7,220,2021-04-23,67,Evaluation needs to be conducted in 2 years,19,3,4,4,3,3,4,3,3,3,,3,3,4,3,4,4,3,4,3,3,S1339,43.64901781,-79.36796495,315435.409,4834128.066
183801,4156748,GREENWIN,M5A,2017,2021,2009,TCHC,13,Toronto Centre,501 ADELAIDE ST E,13,180,2021-04-23,71,Evaluation needs to be conducted in 2 years,19,3,4,4,2,3,3,4,3,3,4,3,4,3,4,4,4,,4,4,4,S1335,43.65255869,-79.36534119,315646.432,4834521.781
183802,4152927,VILNIUS MANOR,M6P,2017,2021,1982,SOCIAL HOUSING,4,Parkdale-High Park,1700 BLOOR ST W,9,115,2021-04-23,80,Evaluation needs to be conducted in 2 years,19,4,4,5,3,4,4,4,4,4,,3,3,5,4,4,4,4,4,4,5,S0429,43.65540421,-79.45842609,308137.86,4834829.083
183803,4152907,,M6S,2017,2021,1967,PRIVATE,4,Parkdale-High Park,1 RUNNYMEDE RD,4,28,2021-04-23,68,Evaluation needs to be conducted in 2 years,16,3,4,4,3,4,3,,3,,3,2,3,5,3,3,4,,3,4,,S0430,43.64615983,-79.47395211,306885.53,4833802.545
183804,4356202,PENNYLANE PROPERTIES,M6K,2018,2021,2017,PRIVATE,4,Parkdale-High Park,36 SPENCER AVE,8,46,2021-04-23,91,Evaluation needs to be conducted in 3 years,16,5,4,3,5,5,5,5,5,4,,5,4,5,5,4,5,,4,,,S0437,43.6349533,-79.42999615,310432.662,4832559.495
183805,4153786,TDL MANAGEMENT CO.,M4S,2017,2021,1956,PRIVATE,15,Don Valley West,299 FORMAN AVE,4,29,2021-04-23,48,Building Audit,15,2,2,3,2,1,2,,3,,,1,1,4,3,3,3,,3,3,,N1530,43.70777216,-79.38523196,314033.795,4840652.473
183806,4883232,,M4J,,2021,,PRIVATE,14,Toronto-Danforth,111 COSBURN AVE,3,23,2021-04-23,69,Evaluation needs to be conducted in 2 years,15,3,4,3,4,2,4,,4,,,3,2,5,3,4,4,,4,3,,S1422,43.68925458,-79.34813012,317027.601,4838599.943
183807,4152908,,M6S,2017,2021,1967,PRIVATE,4,Parkdale-High Park,2 KENNEDY AVE,4,25,2021-04-23,66,Evaluation needs to be conducted in 2 years,16,3,4,4,3,4,3,,3,,3,2,3,4,3,3,4,,3,4,,S0430,43.6462326,-79.47356784,306916.528,4833810.638
183808,4286254,,,2017,2021,2014,TCHC,13,Toronto Centre,585 KING ST E,8,128,2021-04-23,93,Evaluation needs to be conducted in 3 years,19,4,5,4,5,5,5,5,4,5,,4,4,5,5,5,5,5,4,5,4,S1336,,,316351.135,4834942.491
183809,4154317,,M6L,2017,2021,1955,PRIVATE,5,York South-Weston,2641 KEELE ST,3,21,2021-04-23,76,Evaluation needs to be conducted in 2 years,15,3,4,5,4,3,3,,5,,,3,4,5,3,4,4,,4,3,,W0523,43.72124895,-79.48010974,306387.12,4842143.426
183810,4154318,,M6L,2017,2021,1955,PRIVATE,5,York South-Weston,2643 KEELE ST,3,21,2021-04-23,79,Evaluation needs to be conducted in 2 years,15,3,4,5,4,3,4,,5,,,3,4,5,4,4,4,,4,3,,W0523,43.72143775,-79.48005278,306391.705,4842164.401
183811,4154319,FRANCESCHI FAMILY HOLDINGS INC,M6L,2018,2021,1953,PRIVATE,5,York South-Weston,2645 KEELE ST,3,21,2021-04-23,76,Evaluation needs to be conducted in 2 years,15,3,4,5,3,4,4,,4,,,3,4,5,3,4,4,,4,3,,W0523,43.72160777,-79.48010536,306387.464,4842183.289
183812,4154321,,M6L,2017,2021,1960,PRIVATE,5,York South-Weston,2647 KEELE ST,3,33,2021-04-23,79,Evaluation needs to be conducted in 2 years,15,3,4,5,3,3,3,,4,,,3,4,5,5,4,4,,5,4,,W0523,43.7218557,-79.48081477,306330.299,4842210.82
183813,4152815,,M1G,2017,2021,1977,TCHC,24,Scarborough-Guildwood,65 GREENCREST CRCT,13,400,2021-04-23,76,Evaluation needs to be conducted in 2 years,19,4,4,3,3,4,3,3,4,4,,4,3,4,5,3,4,5,4,4,4,E2430,43.75999533,-79.22179744,327185.56,4846485.164
183814,4152943,,M6P,2017,2021,1940,PRIVATE,4,Parkdale-High Park,340 HIGH PARK AVE,3,10,2021-04-23,64,Evaluation needs to be conducted in 1 year,15,3,3,4,3,3,3,,3,,,3,3,5,3,3,3,,3,3,,S0424,43.66528303,-79.47055752,307158.849,4835926.123
183815,4154045,,M4B,2017,2021,1994,SOCIAL HOUSING,19,Beaches-East York,10 GOWER ST,7,164,2021-04-22,87,Evaluation needs to be conducted in 3 years,19,5,4,5,5,5,5,4,4,5,,4,3,5,4,4,4,4,4,4,5,S1927,43.70265798,-79.29799721,321065.183,4840098.537
183816,4155085,G&S REALTY INVESTMENTS INC.,M6M,2017,2021,1958,PRIVATE,5,York South-Weston,1650 KEELE ST,4,22,2021-04-22,74,Evaluation needs to be conducted in 2 years,17,4,3,5,4,3,3,,4,,3,3,4,4,4,4,4,4,4,3,,W0536,43.6834927,-79.47263124,306990.985,4837949.057
183817,4153720,,M4C,2020,2021,1988,SOCIAL HOUSING,19,Beaches-East York,2526 DANFORTH AVE,7,48,2021-04-22,78,Evaluation needs to be conducted in 2 years,19,4,4,4,4,4,4,4,4,4,,3,4,4,4,3,4,3,4,4,5,S1929,43.68831743,-79.30255631,320701.73,4838503.548
183818,4155614,AYKLER REAL ESTATE INC,M4C,2019,2021,1991,SOCIAL HOUSING,19,Beaches-East York,1577 DANFORTH AVE,6,126,2021-04-22,77,Evaluation needs to be conducted in 2 years,19,4,4,4,4,4,4,4,4,3,,4,3,5,4,4,4,3,4,3,4,S1931,43.68318064,-79.32304618,319051.152,4837929.136
183819,4154564,626114/5 ONTARIO LTD,M6A,2017,2021,1953,PRIVATE,8,Eglinton-Lawrence,30 COVINGTON RD,4,26,2021-04-22,76,Evaluation needs to be conducted in 2 years,15,4,4,5,3,4,4,,4,,,4,3,5,4,3,3,,4,3,,N0823,43.72060821,-79.43290764,310190.421,4842074.229
183820,4155726,TCH,M4C,2017,2021,1989,TCHC,19,Beaches-East York,33 COATSWORTH CRES,5,128,2021-04-22,65,Evaluation needs to be conducted in 1 year,19,3,4,4,3,3,3,3,4,3,,2,3,3,4,3,4,4,3,3,3,S1931,43.67926299,-79.32015124,319285.482,4837494.411
183821,4155059,,M6B,2017,2021,1960,PRIVATE,8,Eglinton-Lawrence,2495 DUFFERIN ST,3,15,2021-04-22,51,Evaluation needs to be conducted in 1 year,14,3,2,4,2,1,2,,3,,,1,1,5,3,3,2,,4,,,N0831,43.70172749,-79.45164002,308682.24,4839975.612
183822,4153683,TCH,M4L,2017,2021,1955,TCHC,19,Beaches-East York,98 ELMER AVE,4,36,2021-04-22,69,Evaluation needs to be conducted in 2 years,17,3,3,4,3,4,2,,4,,,4,3,4,4,4,4,3,3,3,4,S1938,43.67234455,-79.30515721,320496.219,4836728.497
183823,4153455,MYRMEX NON-PROFIT HOUSING,M5B,2018,2021,1991,SOCIAL HOUSING,13,Toronto Centre,177 MUTUAL ST,10,42,2021-04-22,74,Evaluation needs to be conducted in 2 years,17,3,3,4,3,4,4,2,3,3,,3,4,5,4,4,4,,5,5,,S1328,43.65955903,-79.37653614,314742.506,4835297.128
183824,4153566,TCH,M5A,2017,2021,1984,TCHC,13,Toronto Centre,540 QUEEN ST E,6,44,2021-04-22,81,Evaluation needs to be conducted in 3 years,19,4,4,5,4,4,4,3,5,4,,3,4,5,4,5,4,4,4,3,4,S1330,43.65734241,-79.35764979,316265.96,4835054.266
183825,4156480,TCH,M4A,2017,2021,1966,TCHC,19,Beaches-East York,90 PARMA CRT,7,92,2021-04-22,73,Evaluation needs to be conducted in 2 years,18,3,4,5,4,4,3,4,3,3,,4,4,4,4,3,3,3,4,4,,S1923,43.71719577,-79.30099924,320819.363,4841713.06
183826,4153050,LA VALETTE PROPERTY MANAGEMENT,M6R,2017,2021,1967,PRIVATE,4,Parkdale-High Park,244 RONCESVALLES AVE,3,22,2021-04-22,76,Evaluation needs to be conducted in 2 years,15,3,4,4,3,3,4,,3,,4,4,4,5,4,4,4,,4,,,S0432,43.64587487,-79.44936234,308869.575,4833770.792
183827,4154520,GEORGE PREISS,M6A,2017,2021,1965,PRIVATE,8,Eglinton-Lawrence,1 MARQUETTE AVE,4,24,2021-04-22,68,Evaluation needs to be conducted in 2 years,16,3,3,5,3,3,3,,3,,,4,3,5,3,3,3,3,4,3,,N0823,43.73377994,-79.43365665,310128.895,4843537.493
183828,4154528,,M6A,2017,2021,1956,PRIVATE,8,Eglinton-Lawrence,78 NEPTUNE DR,3,12,2021-04-22,58,Evaluation needs to be conducted in 1 year,16,3,3,3,3,3,3,,3,,,3,2,4,2,2,3,3,3,3,,N0823,43.73284664,-79.43613946,309928.972,4843433.651
183829,4155083,S & T INC,M6M,2017,2021,1965,PRIVATE,5,York South-Weston,7 NASHVILLE AVE,4,23,2021-04-22,82,Evaluation needs to be conducted in 3 years,17,4,4,5,4,4,3,,4,,3,4,5,5,4,4,4,4,5,4,,W0536,43.6831781,-79.47350223,306920.77,4837914.084
183830,4154046,GLENBURN COOPERATIVE,M4B,2017,2021,1968,SOCIAL HOUSING,19,Beaches-East York,7 GLENBURN AVE,6,55,2021-04-22,72,Evaluation needs to be conducted in 2 years,19,4,4,4,4,4,3,4,2,3,,3,3,4,3,4,4,3,4,4,4,S1927,43.70685987,-79.29707453,321138.676,4840564.587
183831,4152971,TIMBERCREEK COMMUNITIES,M6K,2018,2021,1965,PRIVATE,4,Parkdale-High Park,100 TYNDALL AVE,6,48,2021-04-22,78,Evaluation needs to be conducted in 2 years,16,4,4,5,4,4,4,,4,3,,4,4,5,4,3,3,,4,3,,S0437,43.6364201,-79.42895372,310516.904,4832721.558
183832,4152951,AKELIUS CANADA LTD,M6K,2017,2021,1957,PRIVATE,4,Parkdale-High Park,99 TYNDALL AVE,9,70,2021-04-22,66,Evaluation needs to be conducted in 2 years,17,3,4,5,2,3,4,,2,4,,2,4,5,3,3,3,3,3,3,,S0437,43.63663498,-79.42765165,310621.944,4832745.515
183833,4152975,METCAP LIVING MANAGEMENT INC.,M6K,2018,2021,1965,PRIVATE,4,Parkdale-High Park,24 TYNDALL AVE,7,73,2021-04-22,74,Evaluation needs to be conducted in 2 years,17,4,2,5,2,4,5,,3,4,,3,4,5,4,3,4,4,4,3,,S0437,43.63512859,-79.42848228,310555.059,4832578.112
183834,4152641,,M1R,2019,2021,1954,PRIVATE,21,Scarborough Centre,1637 VICTORIA PARK AVE,4,26,2021-04-22,89,Evaluation needs to be conducted in 3 years,17,5,3,5,5,5,4,,4,,5,3,5,5,5,5,3,5,4,5,,E2131,43.73219506,-79.30525386,320472.882,4843377.644
183835,4153063,,M6K,2017,2021,1959,TCHC,4,Parkdale-High Park,20 WEST LODGE AVE,11,299,2021-04-22,80,Evaluation needs to be conducted in 2 years,15,4,4,4,2,4,3,,4,4,,4,4,5,4,5,4,,5,,,S0435,43.64219007,-79.43635834,309918.979,4833362.107
183836,4153639,,M4L,2019,2021,1915,PRIVATE,14,Toronto-Danforth,279 WOODFIELD RD,4,42,2021-04-22,42,Building Audit,13,2,1,1,1,,2,,4,,,1,1,4,3,2,2,,3,,,S1439,43.67166406,-79.32370431,319000.793,4836649.59
183837,4153716,SMALLWOOD CONSULTING LTD.,M4E,2017,2021,1956,PRIVATE,19,Beaches-East York,619 WOODBINE AVE,4,50,2021-04-22,86,Evaluation needs to be conducted in 3 years,16,5,4,5,4,4,5,,5,,,4,5,5,4,4,4,3,4,4,,S1935,43.67789569,-79.30881138,320200.146,4837344.543
183838,4152956,TIMBERCREEK COMMUNITIES,M6K,2018,2021,1965,PRIVATE,4,Parkdale-High Park,31 SPENCER AVE,6,54,2021-04-22,71,Evaluation needs to be conducted in 2 years,17,3,4,5,3,4,4,,3,3,,4,4,5,3,3,3,3,3,3,,S0437,43.63508063,-79.42919452,310497.332,4832573.691
183839,4155598,,M5T,2017,2021,1978,TCHC,11,University-Rosedale,6 HENRY ST,4,105,2021-04-22,73,Evaluation needs to be conducted in 2 years,17,3,4,4,3,4,4,3,3,4,,3,4,5,4,3,3,,4,4,,S1144,43.65627904,-79.39375887,313353.834,4834930.811
183840,4152811,,M1G,2017,2021,1991,SOCIAL HOUSING,24,Scarborough-Guildwood,450 B SCARBOROUGH GOLF CLUB RD,5,112,2021-04-22,86,Evaluation needs to be conducted in 3 years,18,4,4,5,4,4,5,5,4,4,,4,4,5,4,5,4,,4,4,4,E2430,43.75461866,-79.21717075,327651.524,4845946.183
183841,4152801,PROPERTY SERVICES INC.,M1J,2017,2021,1961,PRIVATE,24,Scarborough-Guildwood,5 CEDAR DR,10,86,2021-04-21,66,Evaluation needs to be conducted in 2 years,18,3,3,4,3,3,4,2,4,3,,3,4,3,3,4,3,3,3,4,,E2433,43.74452723,-79.21545777,327701.9,4844768.434
183842,4156182,TCH,M4J,2017,2021,1969,TCHC,14,Toronto-Danforth,80 BLAKE ST,14,190,2021-04-21,77,Evaluation needs to be conducted in 2 years,20,4,4,5,3,4,3,4,4,5,3,4,4,5,3,4,4,4,3,3,4,S1430,43.67437499,-79.33948013,317736.256,4836964.143
183843,4152936,2054138 ONTARIO LTD,M6P,2017,2021,1914,PRIVATE,4,Parkdale-High Park,1914 BLOOR ST W,3,16,2021-04-21,81,Evaluation needs to be conducted in 3 years,15,4,4,5,4,5,4,,5,,,4,3,4,4,4,4,,4,3,,S0428,43.65372432,-79.46604826,307522.842,4834643.12
183844,4152937,2054128 ONTARIO LTD,M6P,2017,2021,1914,PRIVATE,4,Parkdale-High Park,1920 BLOOR ST W,3,16,2021-04-21,83,Evaluation needs to be conducted in 3 years,15,4,4,5,4,5,4,,5,,,4,3,5,4,4,4,,4,3,,S0428,43.65368538,-79.46625553,307506.125,4834638.788
183845,4152909,TRAVI INC.,M6S,2017,2021,1930,PRIVATE,4,Parkdale-High Park,2001 BLOOR ST W,4,60,2021-04-21,81,Evaluation needs to be conducted in 3 years,14,4,4,5,4,,4,,4,4,,4,3,5,4,4,4,,4,,,S0431,43.65182218,-79.47144373,307087.937,4834430.705
183846,4152777,,M1M,2017,2021,1979,TCHC,20,Scarborough Southwest,17 BRIMLEY RD,11,330,2021-04-21,88,Evaluation needs to be conducted in 3 years,19,5,4,5,4,4,5,4,4,5,,5,5,5,4,4,5,4,4,4,4,E2026,43.72046817,-79.23910566,325805.629,4842089.426
183847,4261240,,M4K,2017,2021,1950,PRIVATE,14,Toronto-Danforth,814 BROADVIEW AVE,3,24,2021-04-21,61,Evaluation needs to be conducted in 1 year,14,3,3,4,3,3,2,,3,,,3,4,3,3,3,3,,3,,,S1424,43.67792961,-79.35892347,316159.639,4837340.27
183848,4155610,TCH,M4L,2017,2021,1965,TCHC,19,Beaches-East York,1080 EASTERN AVE,6,41,2021-04-21,81,Evaluation needs to be conducted in 3 years,18,4,4,5,5,4,5,4,4,3,,4,4,5,4,3,4,4,4,3,,S1941,43.66585972,-79.31604341,319619.997,4836006.059
183849,4153795,AKELIUS CANADA LTD,M4P,2017,2021,1960,PRIVATE,15,Don Valley West,551 EGLINTON AVE E,8,54,2021-04-21,70,Evaluation needs to be conducted in 2 years,18,4,4,4,3,3,3,2,3,3,,3,4,5,4,4,3,4,4,3,,N1530,43.71047329,-79.37858803,314568.772,4840953.298
183850,4154766,,M3C,2017,2021,1981,TCHC,16,Don Valley East,10 DEAUVILLE LANE,7,247,2021-04-21,78,Evaluation needs to be conducted in 2 years,19,4,4,4,3,4,4,4,4,4,,3,4,5,4,4,4,4,4,3,4,N1630,43.71755371,-79.33167232,318347.963,4841746.448
183851,4153157,,M6G,2017,2021,1989,TCHC,11,University-Rosedale,72 CLINTON ST,7,157,2021-04-21,81,Evaluation needs to be conducted in 3 years,18,4,4,5,5,4,5,5,3,4,,4,5,3,4,3,3,4,4,4,,S1133,43.65569799,-79.4149595,311643.949,4834864.327
183852,4152631,METCAP LIVING MANAGEMENT INC,M1L,2017,2021,1955,PRIVATE,21,Scarborough Centre,40 CRAIGTON DR,4,30,2021-04-21,89,Evaluation needs to be conducted in 3 years,16,5,3,5,4,4,4,,5,,,4,3,5,4,5,5,5,5,5,,E2131,43.72742521,-79.29875,320998.094,4842848.979
183853,4153833,,M4P,2017,2021,1956,TCHC,15,Don Valley West,28 BROADWAY AVE,3,75,2021-04-21,74,Evaluation needs to be conducted in 2 years,17,3,4,5,3,3,4,3,4,3,,3,4,5,4,4,4,,4,3,,N1526,43.71043048,-79.39712151,313074.954,4840947.509
183854,4153025,,M6K,2018,2021,1965,PRIVATE,4,Parkdale-High Park,182 JAMESON AVE,11,82,2021-04-21,61,Evaluation needs to be conducted in 1 year,17,4,3,4,2,3,3,,3,3,,2,3,5,2,3,4,3,3,2,,S0436,43.63890254,-79.43702683,309865.315,4832996.847
183855,4168808,,M6S,2017,2021,1955,PRIVATE,4,Parkdale-High Park,23 JANE ST,3,18,2021-04-21,68,Evaluation needs to be conducted in 2 years,15,3,4,5,3,2,3,,4,,,3,3,5,3,3,3,,4,3,,S0426,43.65007995,-79.48433563,306048.009,4834236.904
183856,4154326,,M9N,2017,2021,1960,PRIVATE,5,York South-Weston,1607 JANE ST,3,29,2021-04-21,80,Evaluation needs to be conducted in 2 years,16,4,4,5,4,4,4,,4,,,4,5,5,3,4,4,3,4,3,,W0528,43.70076456,-79.50281999,304557.177,4839867.602
183857,4155140,,M9N,2017,2021,1960,PRIVATE,5,York South-Weston,1848 JANE ST,3,21,2021-04-21,74,Evaluation needs to be conducted in 2 years,16,3,3,5,3,3,3,,4,,,4,3,5,4,4,4,3,4,4,,W0525,43.7079731,-79.50553091,304338.744,4840668.422
183858,4155141,EZ PROPERTY MANAGEMENT LTD,M9N,2018,2021,1954,PRIVATE,5,York South-Weston,1860 JANE ST,4,40,2021-04-21,74,Evaluation needs to be conducted in 2 years,16,3,3,5,3,3,4,,4,,,4,4,5,3,3,4,4,4,3,,W0525,43.70876109,-79.50573988,304321.91,4840755.962
183859,4152814,,M1G,2017,2021,1970,PRIVATE,24,Scarborough-Guildwood,20 GREENCREST CRCT,10,136,2021-04-21,85,Evaluation needs to be conducted in 3 years,19,5,5,5,4,4,5,4,4,5,3,5,4,5,4,4,4,4,4,3,,E2430,43.75836953,-79.22343125,327054.605,4846304.108
183860,4154517,SUMMA PROPERTY MANAGEMENT INC.,M6A,2017,2021,1956,PRIVATE,8,Eglinton-Lawrence,27 HOTSPUR RD,3,11,2021-04-21,72,Evaluation needs to be conducted in 2 years,17,3,3,5,4,3,3,,3,,4,4,4,4,4,4,3,3,4,3,,N0823,43.73249783,-79.43497028,310023.188,4843394.977
183861,4152893,,M1B,2017,2021,1991,TCHC,25,Scarborough-Rouge Park,1315 NEILSON RD,5,126,2021-04-21,78,Evaluation needs to be conducted in 2 years,18,4,4,4,3,4,4,4,4,4,,3,4,5,4,3,4,,4,4,4,E2524,43.80778696,-79.21881218,327408.037,4851795.432
183862,4154068,,M4B,2017,2021,1979,SOCIAL HOUSING,19,Beaches-East York,850 O'CONNOR DR,3,109,2021-04-21,82,Evaluation needs to be conducted in 3 years,19,5,4,5,4,5,3,4,4,4,,4,4,5,4,4,4,3,4,3,5,S1922,43.70706077,-79.31227991,319913.196,4840584.078
183863,4408585,CASTLEHILL PROPERTY MANAGEMENT,M5R,2018,2021,1948,PRIVATE,11,University-Rosedale,130 MACPHERSON AVE,3,26,2021-04-21,74,Evaluation needs to be conducted in 2 years,14,4,4,4,3,4,3,,3,,,3,5,5,4,3,3,,4,,,S1128,43.67836054,-79.39507019,313244.997,4837383.81
183864,4155866,,,2017,2021,2008,TCHC,14,Toronto-Danforth,50 MATILDA ST,4,56,2021-04-21,80,Evaluation needs to be conducted in 2 years,19,4,4,5,4,4,4,4,4,4,,4,4,5,4,4,4,4,3,3,4,S1434,43.66023771,-79.35303425,316637.682,4835376.563
183865,4243767,AKELIUS CANADA LTD,M6K,2017,2021,1900,PRIVATE,4,Parkdale-High Park,28 MAYNARD AVE,3,20,2021-04-21,77,Evaluation needs to be conducted in 2 years,14,4,4,5,3,4,4,,5,,,3,3,5,3,4,3,,4,,,S0436,43.63800724,-79.43803496,309784.048,4832897.33
183866,4152842,DEL MANAGMENT,M1E,2017,2021,1974,TCHC,25,Scarborough-Rouge Park,4205 LAWRENCE AVE E,14,345,2021-04-21,71,Evaluation needs to be conducted in 2 years,18,3,4,4,3,3,4,3,2,4,,2,4,5,4,4,4,4,4,3,,E2537,43.76799274,-79.18535027,330116.903,4847384.065
183867,4155283,KACH INVESTMENT CORP,M8Y,2017,2021,1958,PRIVATE,3,Etobicoke-Lakeshore,10 KINGS POINT DR,3,19,2021-04-21,80,Evaluation needs to be conducted in 2 years,16,4,4,4,3,4,4,,3,,4,4,4,5,5,4,3,5,4,,,W0327,43.63983147,-79.49285291,305360.986,4833098.271
183868,4153673,,M4L,2017,2021,1925,PRIVATE,19,Beaches-East York,1836 QUEEN ST E,3,30,2021-04-21,57,Evaluation needs to be conducted in 1 year,15,3,3,4,2,2,3,,3,,,2,2,4,3,3,3,,3,3,,S1937,43.66845984,-79.30839451,320236.165,4836296.316
183869,4653431,ASHBRIDGES PROPERTY MANAGEMENT,M4E,2019,2021,1965,PRIVATE,19,Beaches-East York,2178 QUEEN ST E,3,21,2021-04-21,64,Evaluation needs to be conducted in 1 year,14,3,3,4,3,,3,,3,,,3,3,4,3,4,3,,3,3,,S1939,43.67220633,-79.29089343,321646.453,4836715.931
183870,4316602,,M4B,2018,2021,1951,PRIVATE,19,Beaches-East York,995 O'CONNOR DR,3,12,2021-04-21,76,Evaluation needs to be conducted in 2 years,15,4,4,4,4,3,4,,4,,,3,4,5,4,4,3,,4,3,,S1924,43.70919211,-79.30968555,320121.737,4840821.33
183871,4848750,STONEGATE PROPERTY MANAGEMENT,M4B,2021,2021,1954,PRIVATE,19,Beaches-East York,996 O'CONNOR DR,3,18,2021-04-21,49,Building Audit,15,2,3,2,2,2,3,,3,,,2,2,3,3,3,2,,2,3,,S1921,43.7091752,-79.31057239,320050.275,4840819.291
183872,4326897,,M4B,,2021,1951,PRIVATE,19,Beaches-East York,1139 O'CONNOR DR,3,12,2021-04-21,83,Evaluation needs to be conducted in 3 years,15,5,4,4,5,3,5,,3,,,5,3,5,4,4,4,,4,4,,S1924,43.71143767,-79.30789566,320265.406,4841071.132
183873,4156514,1693441 ONTARIO INC,M6K,2017,2021,1970,PRIVATE,4,Parkdale-High Park,7 O'HARA AVE,4,16,2021-04-21,70,Evaluation needs to be conducted in 2 years,14,3,4,4,3,,3,,3,,,3,3,5,4,3,3,4,4,,,S0435,43.64167112,-79.43407064,310103.595,4833304.59
183874,4155205,,M6S,2017,2021,1959,PRIVATE,4,Parkdale-High Park,4029 OLD DUNDAS ST,8,29,2021-04-21,56,Evaluation needs to be conducted in 1 year,18,3,3,4,2,2,3,,2,2,3,2,4,5,2,3,3,1,3,3,,S0421,43.66397087,-79.50213537,304612.07,4835780.002
183875,4155293,KINGS COLLEGE MANAGEMENT LTD,M8X,2017,2021,1955,PRIVATE,3,Etobicoke-Lakeshore,69 OLD MILL TER,4,26,2021-04-21,78,Evaluation needs to be conducted in 2 years,16,4,4,4,3,4,4,,4,,4,4,3,5,4,4,4,,3,4,,W0327,43.6497103,-79.49871146,304888.256,4834195.725
183876,4154177,WILANMAR HOLDINGS LTD.,M4G,2017,2021,1947,PRIVATE,15,Don Valley West,871 MILLWOOD RD,3,15,2021-04-21,71,Evaluation needs to be conducted in 2 years,15,3,3,4,3,,4,,4,,2,3,2,5,4,4,4,,5,3,,N1535,43.7037566,-79.36531227,315639.846,4840208.712
183877,4154061,,M4B,2017,2021,1983,SOCIAL HOUSING,19,Beaches-East York,2701-2703 ST CLAIR AVE E,5,127,2021-04-21,91,Evaluation needs to be conducted in 3 years,18,5,5,5,4,5,5,5,4,5,,4,4,5,4,4,4,,4,5,5,S1927,43.70553257,-79.31144435,319980.908,4840414.447
183878,4364249,GREENWIN CORP.,M4B,2018,2021,1953,PRIVATE,19,Beaches-East York,9 STAG HILL DR,4,15,2021-04-21,84,Evaluation needs to be conducted in 3 years,15,4,4,5,4,4,4,,4,,,4,4,5,4,4,4,,4,5,,S1927,43.70336356,-79.31052732,320055.105,4840174.599
183879,4700131,,M3N,,2021,,PRIVATE,7,Humber River-Black Creek,25 SAN ROMANOWAY,19,232,2021-04-21,64,Evaluation needs to be conducted in 1 year,18,4,3,4,2,3,3,3,3,4,,3,4,4,3,3,3,3,3,3,,W0725,43.75963792,-79.51715959,303402.886,4846408.208
183880,4333368,MEDALLION CORPORATION,M4X,2018,2021,1977,PRIVATE,13,Toronto Centre,545 SHERBOURNE ST,30,300,2021-04-21,85,Evaluation needs to be conducted in 3 years,19,4,4,4,4,4,4,4,4,5,4,4,4,5,5,5,4,5,4,4,,S1323,43.66856681,-79.3748332,314878.356,4836298.032
183881,4333382,MEDALLION CORPORATION,M4X,2018,2021,1978,PRIVATE,13,Toronto Centre,555 SHERBOURNE ST,30,292,2021-04-21,87,Evaluation needs to be conducted in 3 years,19,4,5,4,4,4,4,4,4,5,4,4,4,5,5,5,5,5,4,4,,S1323,43.66956979,-79.37520856,314847.652,4836410.365
183882,4333391,MEDALLION CORPORATION,M4X,2018,2021,1978,PRIVATE,13,Toronto Centre,565 SHERBOURNE ST,30,514,2021-04-21,88,Evaluation needs to be conducted in 3 years,20,4,5,4,4,4,4,4,4,5,4,4,4,5,5,5,4,5,5,4,5,S1323,43.66996097,-79.3754306,314829.679,4836453.8
183883,4250094,,M6K,2018,2021,1922,PRIVATE,4,Parkdale-High Park,81 WILSON PARK RD,3,16,2021-04-21,70,Evaluation needs to be conducted in 2 years,14,3,3,5,3,3,4,,4,,,3,2,3,4,4,4,,4,,,S0436,43.63910988,-79.44211512,309454.759,4833019.6
183884,4154032,RKH INVESTMENT LTD,M4N,2017,2021,1940,PRIVATE,8,Eglinton-Lawrence,3464 YONGE ST,4,27,2021-04-21,61,Evaluation needs to be conducted in 1 year,15,3,3,5,2,3,3,,3,,,2,3,4,3,3,3,,3,3,,N0825,43.73480064,-79.40501595,312435.947,4843653.144
183885,4154031,RKH INVESTMENT LTD,M4N,2017,2021,1940,PRIVATE,8,Eglinton-Lawrence,3474 YONGE ST,4,27,2021-04-21,68,Evaluation needs to be conducted in 2 years,15,3,3,5,2,3,3,,3,,,5,5,4,3,3,3,,3,3,,N0825,43.7349962,-79.40513065,312426.683,4843674.858
183886,4156483,TCH,M4A,2017,2021,1967,TCHC,19,Beaches-East York,5 WAKUNDA PL,11,198,2021-04-21,75,Evaluation needs to be conducted in 2 years,17,4,4,5,3,3,4,3,4,4,,3,3,4,4,4,4,,4,,4,S1923,43.71556526,-79.3046724,320524.072,4841530.269
183887,4152688,,M1K,2017,2021,1989,TCHC,20,Scarborough Southwest,120 TOWN HAVEN PL,8,150,2021-04-21,89,Evaluation needs to be conducted in 3 years,18,4,5,5,5,5,5,5,4,4,,4,5,4,4,4,4,,4,5,4,E2024,43.73324522,-79.25927608,324176.346,4843503.962
183888,4152966,,M6K,2017,2021,1956,PRIVATE,4,Parkdale-High Park,124 TYNDALL AVE,4,28,2021-04-21,73,Evaluation needs to be conducted in 2 years,16,3,3,5,4,4,4,,4,,,4,4,5,3,3,2,3,3,4,,S0437,43.63771592,-79.42938406,310482.065,4832865.488
183889,4274213,,M5T,2017,2021,1986,TCHC,10,Spadina-Fort York,20 VANAULEY ST,8,135,2021-04-21,77,Evaluation needs to be conducted in 2 years,19,4,4,5,3,4,4,3,3,4,4,3,3,5,4,4,4,4,4,4,,S1023,43.64893149,-79.39898565,312932.996,4834114.893
183890,4153027,SMARTSELL MARKETING,M6R,2017,2021,1917,PRIVATE,4,Parkdale-High Park,1479 QUEEN ST W,3,11,2021-04-20,68,Evaluation needs to be conducted in 2 years,13,3,4,4,3,,3,,4,,,3,3,5,3,3,3,,3,,,S0436,43.63992063,-79.43936478,309675.403,4833106.528
183891,4153580,,M5A,2017,2021,1930,PRIVATE,13,Toronto Centre,26 GIFFORD ST,4,15,2021-04-20,70,Evaluation needs to be conducted in 2 years,16,2,4,4,3,4,3,,4,,3,3,4,5,2,3,4,,4,4,,S1327,43.66334676,-79.3636941,315777.607,4835719.536
183892,4154962,DAVIS PROPERTY MANAGEMENT,M6C,2018,2021,1928,PRIVATE,12,Toronto-St. Paul's,50 RAGLAN AVE,4,32,2021-04-20,66,Evaluation needs to be conducted in 2 years,14,3,3,5,3,3,3,,3,,,3,3,5,3,3,3,,3,,,S1229,43.68446553,-79.42055777,311189.247,4838059.79
183893,4154208,,M3L,2017,2021,1955,PRIVATE,7,Humber River-Black Creek,1760 WILSON AVE,4,32,2021-04-20,60,Evaluation needs to be conducted in 1 year,15,3,3,3,3,3,3,,2,,,3,3,5,3,3,3,,3,2,,W0734,43.71948961,-79.51654786,303451.176,4841947.966
183894,4154209,,M3L,2017,2021,1954,PRIVATE,7,Humber River-Black Creek,1770 WILSON AVE,3,31,2021-04-20,63,Evaluation needs to be conducted in 1 year,15,3,3,3,3,3,3,,3,,,3,3,5,3,3,3,,3,3,,W0734,43.71930227,-79.51732523,303388.542,4841927.165
183895,4155123,,M6M,,2021,1954,PRIVATE,5,York South-Weston,1240 WESTON RD,3,22,2021-04-20,74,Evaluation needs to be conducted in 2 years,16,3,3,5,4,3,3,,4,,,4,3,5,4,3,4,,4,3,4,W0531,43.6880806,-79.49347099,305310.766,4838458.456
183896,4154980,AKELIUS CANADA LTD,M6C,2017,2021,1927,PRIVATE,12,Toronto-St. Paul's,227 VAUGHAN RD,4,24,2021-04-20,70,Evaluation needs to be conducted in 2 years,14,3,4,5,3,2,3,,4,,,4,3,5,3,3,3,,4,,,S1229,43.68778523,-79.42330409,310967.502,4838428.419
183897,4155938,GOLD SEAL MANAGEMENT INC.,M1J,2017,2021,1964,PRIVATE,21,Scarborough Centre,10 TRUDELLE ST,6,84,2021-04-20,84,Evaluation needs to be conducted in 3 years,18,5,3,5,5,4,5,5,3,5,,4,5,5,3,5,5,3,3,3,,E2135,43.74020666,-79.24491742,325330.686,4844280.778
183898,4155935,GOLD SEAL MANAGEMENT INC.,M1J,2017,2021,1964,PRIVATE,21,Scarborough Centre,20 TRUDELLE ST,6,84,2021-04-20,86,Evaluation needs to be conducted in 3 years,18,5,3,5,5,5,5,5,3,5,,4,5,5,3,5,5,3,3,3,,E2135,43.74045928,-79.24371826,325427.189,4844309.14
183899,4154821,,M2J,2017,2021,1966,PRIVATE,17,Don Valley North,201 VAN HORNE AVE,18,245,2021-04-20,71,Evaluation needs to be conducted in 2 years,18,4,4,4,4,4,4,4,4,3,,2,4,3,3,3,4,3,4,3,,N1727,43.78639581,-79.35370328,316559.107,4849392.065
183900,4155639,TCH,M6A,2017,2021,1957,TCHC,8,Eglinton-Lawrence,22 VARNA DR,3,31,2021-04-20,79,Evaluation needs to be conducted in 2 years,15,4,4,5,3,4,4,,5,,,2,3,5,4,3,4,,4,5,,N0823,43.71961944,-79.44079859,309554.68,4841963.878
183901,4154970,,M6C,2017,2021,1977,TCHC,12,Toronto-St. Paul's,130 VAUGHAN RD,9,99,2021-04-20,85,Evaluation needs to be conducted in 3 years,19,4,4,5,3,5,4,4,5,5,4,4,5,5,4,4,4,,4,4,4,S1229,43.68477131,-79.42200134,311072.831,4838093.652
183902,4154514,DASH PROPERTY MANAGEMENT,M6A,2017,2021,1960,PRIVATE,8,Eglinton-Lawrence,50 NEPTUNE DR,3,12,2021-04-20,65,Evaluation needs to be conducted in 1 year,16,3,3,5,3,3,3,,3,,,3,4,4,3,3,3,3,3,3,,N0823,43.73176202,-79.43481101,310035.821,4843314.199
183903,4154260,WEDGEWOOD COLUMBUS LIMITED,M9M,2017,2021,1952,PRIVATE,7,Humber River-Black Creek,73 LOVILLA BLVD,3,16,2021-04-20,64,Evaluation needs to be conducted in 1 year,16,3,3,4,3,3,3,,3,,3,3,3,5,3,3,3,,3,3,,W0733,43.71773028,-79.53720151,301786.885,4841753.108
183904,4152999,GOLDEN EQUITY PROPERTIES,M6K,2017,2021,1960,PRIVATE,4,Parkdale-High Park,1475 KING ST W,3,44,2021-04-20,74,Evaluation needs to be conducted in 2 years,14,4,4,4,4,3,3,,5,,,3,4,4,3,3,4,,4,,,S0437,43.63613071,-79.4396083,309657.257,4832688.775
183905,4155292,AKELIUS CANADA LTD,M8Y,2018,2021,1957,PRIVATE,3,Etobicoke-Lakeshore,47-49 RIVERWOOD PKWY,4,21,2021-04-20,73,Evaluation needs to be conducted in 2 years,17,4,4,4,3,4,4,,4,,3,3,4,4,4,4,4,2,3,4,,W0327,43.64030429,-79.49144846,305474.305,4833150.807
183906,4156727,,M2J,2017,2021,1967,PRIVATE,17,Don Valley North,100 PARKWAY FOREST DR,17,216,2021-04-20,71,Evaluation needs to be conducted in 2 years,18,3,4,4,2,,4,3,4,3,,2,4,3,4,4,4,4,4,4,4,N1730,,,317511.715,4847942.106
183907,4155650,TCH,M3A,2017,2021,1962,TCHC,16,Don Valley East,51 PARKWOODS VILLAGE DR,7,81,2021-04-20,72,Evaluation needs to be conducted in 2 years,20,4,3,4,3,3,4,3,4,3,3,3,4,4,4,4,3,4,4,4,4,N1625,43.7595072,-79.32005054,319274.057,4846410.106
183908,4153061,,M6K,2017,2021,1970,PRIVATE,4,Parkdale-High Park,15 O'HARA AVE,4,32,2021-04-20,67,Evaluation needs to be conducted in 2 years,14,3,3,4,4,,3,,4,,,3,4,3,4,2,3,,4,3,,S0435,43.64191361,-79.43409992,310101.212,4833331.527
183909,4154792,,M3C,2017,2021,1990,TCHC,16,Don Valley East,20 SANDERLING PL,5,90,2021-04-20,80,Evaluation needs to be conducted in 2 years,19,4,4,4,4,4,4,4,3,4,,4,4,5,4,4,4,4,4,4,4,N1626,43.73391428,-79.34892166,316954.747,4843561.308
183910,4155156,,M9N,2017,2021,1965,PRIVATE,5,York South-Weston,36 CHURCH ST,6,41,2021-04-20,71,Evaluation needs to be conducted in 2 years,18,3,3,5,3,3,4,,3,3,3,3,4,5,4,4,4,3,4,3,,W0524,43.70434901,-79.52380161,302866.172,4840266.152
183911,4255528,HD PROPERTY MANAGEMENT,M8W,2017,2021,1950,PRIVATE,3,Etobicoke-Lakeshore,3 BIRCHLEA AVE,3,10,2021-04-20,66,Evaluation needs to be conducted in 2 years,14,3,4,3,3,1,4,,4,,,3,4,4,3,4,2,,4,,,W0334,43.5926784,-79.52779889,302539.324,4827860.268
183912,4154524,,M6A,2017,2021,1957,PRIVATE,8,Eglinton-Lawrence,22 HOTSPUR RD,3,10,2021-04-20,72,Evaluation needs to be conducted in 2 years,17,4,4,5,3,4,3,,3,,4,3,4,5,3,3,3,3,4,3,,N0823,43.73311688,-79.4348475,310014.946,4843450.384
183913,4167451,GREENWIN,,2017,2021,1990,TCHC,10,Spadina-Fort York,125 QUEENS WHARF RD,7,73,2021-04-20,89,Evaluation needs to be conducted in 3 years,17,5,4,5,4,4,4,5,4,4,,4,5,5,5,5,5,,4,4,,S1035,43.63989015,-79.39933353,,
183914,4329040,DMS PROPERTY MANAGEMENT LTD,M3H,2018,2021,1949,PRIVATE,6,York Centre,18 ROSSEAU RD,3,11,2021-04-19,78,Evaluation needs to be conducted in 2 years,16,4,4,5,4,3,4,,3,,2,4,4,5,4,4,4,,4,4,,N0629,43.74246653,-79.43779687,309794.673,4844502.242
183915,4329041,DMS PROPERTY MANAGEMENT LTD,M3H,2018,2021,1949,PRIVATE,6,York Centre,20 ROSSEAU RD,3,11,2021-04-19,78,Evaluation needs to be conducted in 2 years,16,4,4,5,4,3,4,,3,,2,4,4,5,4,4,4,,4,4,,N0629,43.74263117,-79.43760519,309810.099,4844520.543
183916,4329042,DMS PROPERTY MANAGEMENT LTD,M3H,2018,2021,1949,PRIVATE,6,York Centre,22 ROSSEAU RD,3,11,2021-04-19,78,Evaluation needs to be conducted in 2 years,16,4,4,5,4,3,4,,3,,2,4,4,5,4,4,4,,4,4,,N0629,43.7428477,-79.43765043,309838.129,4844457.074
183917,4329043,DMS PROPERTY MANAGEMENT LTD,M3H,2018,2021,1949,PRIVATE,6,York Centre,24 ROSSEAU RD,3,11,2021-04-19,78,Evaluation needs to be conducted in 2 years,16,4,4,5,4,3,4,,3,,2,4,4,5,4,4,4,,4,4,,N0629,43.74304777,-79.43770217,309819.873,4844504.373
183918,4153005,PERGOS DEVELOPMENTS,M6R,2017,2021,1900,PRIVATE,4,Parkdale-High Park,1609 QUEEN ST W,3,41,2021-04-19,61,Evaluation needs to be conducted in 1 year,15,2,3,3,3,3,4,,2,,,4,4,3,3,3,3,,3,3,,S0436,43.63873883,-79.44444531,309266.777,4832978.253
183919,4153004,PERGOS DEVELOPMENTS,M6R,2017,2021,1900,PRIVATE,4,Parkdale-High Park,1621 QUEEN ST W,6,74,2021-04-19,65,Evaluation needs to be conducted in 1 year,15,3,3,4,3,3,3,,3,,,2,4,5,3,3,3,,4,3,,S0436,43.63877827,-79.44488374,309231.4,4832982.61
183920,4154923,,M3A,2017,2021,1961,PRIVATE,16,Don Valley East,1244 YORK MILLS RD,4,58,2021-04-19,73,Evaluation needs to be conducted in 2 years,19,3,4,4,4,3,4,4,3,4,4,3,4,5,3,4,4,3,3,3,,N1622,43.76088109,-79.3292989,318529.31,4846560.228
183921,4154922,,M3A,2017,2021,1961,PRIVATE,16,Don Valley East,1254 YORK MILLS RD,4,58,2021-04-19,72,Evaluation needs to be conducted in 2 years,19,4,4,4,3,3,4,3,4,4,4,3,3,4,3,4,4,3,3,4,,N1622,43.76111517,-79.32878298,318570.798,4846586.319
183922,4154917,RANEE MANAGEMENT,M3A,2017,2021,1965,PRIVATE,16,Don Valley East,1300 YORK MILLS RD,8,112,2021-04-19,74,Evaluation needs to be conducted in 2 years,19,4,4,4,3,4,3,3,4,4,3,3,4,5,3,3,4,4,4,4,,N1622,43.76195827,-79.32386694,318966.436,4846680.805
183923,4154850,,M4A,2017,2021,1977,TCHC,16,Don Valley East,1420 VICTORIA PARK AVE,10,330,2021-04-19,77,Evaluation needs to be conducted in 2 years,19,4,4,4,3,4,4,4,4,4,,3,3,4,4,4,4,4,4,4,4,N1631,43.7214718,-79.30245868,320700.892,4842186.871
183924,4152762,GOLDEN EQUITY PROPERTIES,M1J,2018,2021,1963,PRIVATE,21,Scarborough Centre,25 TRUDELLE ST,6,66,2021-04-19,60,Evaluation needs to be conducted in 1 year,18,4,3,3,3,2,2,3,3,3,,2,2,3,4,3,3,3,4,4,,E2135,43.73932682,-79.24378024,325412.352,4844257.077
183925,4156388,GOLDEN EQUITY PROPERTIES,M1J,2018,2021,1963,PRIVATE,21,Scarborough Centre,35 TRUDELLE ST,6,84,2021-04-19,80,Evaluation needs to be conducted in 2 years,18,5,3,3,4,5,4,5,4,4,,3,5,5,4,4,3,3,4,4,,E2135,43.73896952,-79.24334499,325510.51,4844207.261
183926,4156387,GOLDEN EQUITY PROPERTIES,M1J,2018,2021,1963,PRIVATE,21,Scarborough Centre,45 TRUDELLE ST,6,66,2021-04-19,81,Evaluation needs to be conducted in 3 years,19,5,3,3,5,5,5,5,4,4,4,3,5,5,4,4,3,3,4,3,,E2135,43.73935968,-79.2426271,325530.477,4844213.33
183927,4154968,,M6C,2017,2021,1983,TCHC,12,Toronto-St. Paul's,154 VAUGHAN RD,7,51,2021-04-19,83,Evaluation needs to be conducted in 3 years,18,4,4,5,4,4,4,4,4,4,,4,5,5,4,4,4,4,4,4,,S1229,43.68552908,-79.42224871,311052.811,4838177.827
183928,4153300,GREENWIN CORP.,M5R,2017,2021,1992,SOCIAL HOUSING,12,Toronto-St. Paul's,155 KENDAL AVE,5,59,2021-04-19,84,Evaluation needs to be conducted in 3 years,18,4,4,5,5,5,4,5,4,4,,3,4,5,4,4,4,,4,4,4,S1236,43.67621938,-79.40990566,312049.046,4837144.538
183929,4153008,PERGOS DEVELOPMENTS,M6K,2017,2021,1900,PRIVATE,4,Parkdale-High Park,1504 KING ST W,3,15,2021-04-19,63,Evaluation needs to be conducted in 1 year,14,2,3,3,3,3,4,,2,,,4,4,3,3,4,3,,3,,,S0436,43.63666566,-79.44049177,309585.93,4832748.153
183930,4813513,,,,2021,,TCHC,13,Toronto Centre,50 REGENT PARK BLVD,9,155,2021-04-19,94,Evaluation needs to be conducted in 3 years,19,5,5,5,4,5,5,4,4,5,,5,4,5,4,4,5,5,5,5,5,S1330,,,315935.106,4835284.625
183931,4153917,ORIOLE COURT MANAGEMENT,M4V,2017,2021,1918,PRIVATE,12,Toronto-St. Paul's,58 ORIOLE GDNS,4,13,2021-04-19,75,Evaluation needs to be conducted in 2 years,15,3,4,5,3,4,3,,4,,4,3,4,5,3,4,3,,4,,,S1232,43.69063753,-79.40016943,312832.248,4838747.262
183932,4154004,,M5P,2017,2021,1930,PRIVATE,12,Toronto-St. Paul's,484 ORIOLE PKWY,3,18,2021-04-19,75,Evaluation needs to be conducted in 2 years,17,3,4,5,3,3,4,,4,,4,3,4,5,4,3,4,3,4,4,,S1227,43.70424135,-79.40622888,312342.047,4840258.076
183933,4286300,ST. JUDE COMMUNITY HOMES,,2018,2021,2005,SOCIAL HOUSING,13,Toronto Centre,270 MILAN ST,3,30,2021-04-19,80,Evaluation needs to be conducted in 2 years,18,4,4,4,4,3,4,4,4,4,,4,4,5,4,3,4,,5,4,4,S1329,43.65837235,-79.36784954,315438.658,4835180.679
183934,4329037,DMS PROPERTY MANAGEMENT LTD,M3H,2018,2021,1949,PRIVATE,6,York Centre,16 ROSSEAU RD,3,11,2021-04-19,78,Evaluation needs to be conducted in 2 years,16,4,4,5,4,3,4,,3,,2,4,4,5,4,4,4,,4,4,,N0629,43.74227586,-79.43772565,309800.425,4844481.064
183935,4153373,CROMWELL MANAGEMENT INC.,M4V,2017,2021,1929,PRIVATE,12,Toronto-St. Paul's,2 CLARENDON AVE,4,41,2021-04-19,99,Evaluation needs to be conducted in 3 years,19,5,5,5,5,5,5,,5,5,5,5,5,5,5,5,5,4,5,5,5,S1237,43.68359151,-79.40075701,312785.791,4837964.405
183936,4152794,,M1M,2017,2021,1970,TCHC,20,Scarborough Southwest,140 ADANAC DR,16,306,2021-04-19,82,Evaluation needs to be conducted in 3 years,19,4,4,5,4,4,5,4,3,4,,4,4,5,4,4,4,4,4,4,4,E2027,43.74067313,-79.22695826,326777.047,4844337.194
183937,4154495,VILLA CHARITIES INC,M6B,2018,2021,1991,SOCIAL HOUSING,8,Eglinton-Lawrence,3010 DUFFERIN ST,10,202,2021-04-19,85,Evaluation needs to be conducted in 3 years,17,5,4,5,5,4,5,4,4,4,,4,4,5,3,4,4,,4,4,,N0826,43.71187089,-79.45499552,308411.192,4841102.335
183938,4154494,VILLA CHARITIES INC,M6B,2018,2021,1983,SOCIAL HOUSING,8,Eglinton-Lawrence,3050 DUFFERIN ST,14,258,2021-04-19,75,Evaluation needs to be conducted in 2 years,19,4,4,5,4,3,3,3,3,4,,3,4,5,4,4,4,3,4,3,4,N0826,43.71315687,-79.45516221,308397.684,4841245.195
183939,4155594,GREENWIN,M5R,2017,2021,1968,TCHC,11,University-Rosedale,250 DAVENPORT RD,25,460,2021-04-19,78,Evaluation needs to be conducted in 2 years,19,4,4,4,4,3,4,3,4,4,,4,4,5,4,3,3,4,4,5,4,S1127,43.67485056,-79.39825946,312988.295,4836993.517
183940,4155820,QUADREAL PROPERTY GROUP,M4W,2017,2021,1979,PRIVATE,11,University-Rosedale,235 BLOOR ST E,28,479,2021-04-18,89,Evaluation needs to be conducted in 3 years,19,5,5,5,3,4,4,5,5,5,4,4,5,5,4,4,4,,4,5,5,S1137,43.6712768,-79.38090346,314388.383,4836598.4
183941,4155578,,M1G,2017,2021,1969,TCHC,24,Scarborough-Guildwood,2190 ELLESMERE RD,16,180,2021-04-17,75,Evaluation needs to be conducted in 2 years,20,4,3,4,3,4,4,3,4,4,3,3,3,3,5,3,4,5,5,4,4,E2422,43.777855,-79.23003318,326516,4848467.109
183942,4152854,DEL MANAGEMENT,M1T,2017,2021,1975,TCHC,22,Scarborough-Agincourt,2008 PHARMACY AVE,13,293,2021-04-17,83,Evaluation needs to be conducted in 3 years,19,4,4,4,4,4,4,3,5,4,,4,5,5,4,4,4,5,4,4,4,E2225,43.77669303,-79.3191342,319343.731,4848319.569
183943,4155579,,M1G,2017,2021,1969,TCHC,24,Scarborough-Guildwood,2180 ELLESMERE RD,16,180,2021-04-16,74,Evaluation needs to be conducted in 2 years,20,3,4,4,3,3,4,3,4,4,3,3,3,5,3,4,4,5,4,4,4,E2422,43.77761212,-79.23116959,326424.61,4848439.828
183944,4154414,SUSYN SMITH,M3M,2017,2021,1957,PRIVATE,6,York Centre,2842 KEELE ST,3,12,2021-04-16,64,Evaluation needs to be conducted in 1 year,15,3,3,3,3,3,3,,3,,,3,4,5,3,3,3,,3,3,,N0627,43.73086205,-79.48337719,306123.66,4843211.332
183945,4155115,,M6M,,2021,1956,PRIVATE,5,York South-Weston,9 GREENTREE CRT,3,28,2021-04-16,59,Evaluation needs to be conducted in 1 year,15,2,3,4,3,3,4,,3,,,2,3,1,3,3,3,,4,3,,W0532,43.69214713,-79.47946254,306440.017,4838910.374
183946,4154405,,M3M,2017,2021,1993,TCHC,6,York Centre,1286 WILSON AVE,8,124,2021-04-16,71,Evaluation needs to be conducted in 2 years,19,4,4,3,3,3,4,4,3,4,,4,4,5,3,3,3,3,3,3,4,N0627,43.72429473,-79.49384139,305280.424,4842482.587
183947,4155103,,M6M,2017,2021,1950,PRIVATE,5,York South-Weston,98 TRETHEWEY DR,3,10,2021-04-16,64,Evaluation needs to be conducted in 1 year,16,3,4,3,3,3,3,,3,,3,3,3,5,3,2,3,,4,3,,W0532,43.69344317,-79.48239291,306203.767,4839054.32
183948,4152970,,M6K,2017,2021,1992,TCHC,4,Parkdale-High Park,102 TYNDALL AVE,7,54,2021-04-16,79,Evaluation needs to be conducted in 2 years,18,4,5,5,4,4,4,3,4,4,,4,4,5,3,4,4,3,3,4,,S0437,43.63669048,-79.428981,310514.679,4832751.594
183949,4152969,PROPERTY SERVICES INC.,M6K,2017,2021,1960,PRIVATE,4,Parkdale-High Park,110 TYNDALL AVE,3,26,2021-04-16,75,Evaluation needs to be conducted in 2 years,16,4,4,5,4,3,4,,4,,4,4,3,5,3,3,3,,3,4,,S0437,43.63690832,-79.42913717,310502.058,4832775.785
183950,4152968,PROPERTY SERVICES INC.,M6K,2017,2021,1960,PRIVATE,4,Parkdale-High Park,112 TYNDALL AVE,3,27,2021-04-16,75,Evaluation needs to be conducted in 2 years,16,4,4,5,4,3,4,,4,,4,4,3,5,3,3,3,,3,4,,S0437,43.63707162,-79.42919338,310497.508,4832793.922
183951,4155682,VILLA CHARITIES,M6L,2019,2021,1996,SOCIAL HOUSING,5,York South-Weston,338 FALSTAFF AVE,5,175,2021-04-16,86,Evaluation needs to be conducted in 3 years,20,4,4,5,4,4,5,5,5,4,4,4,5,5,4,4,4,4,4,4,4,W0522,43.7204982,-79.48286094,306181.501,4842073.748
183952,4154691,,M3H,2017,2021,1955,PRIVATE,6,York Centre,4111 BATHURST ST,3,11,2021-04-16,64,Evaluation needs to be conducted in 1 year,16,3,3,3,3,3,3,,4,,3,3,3,5,3,3,3,,3,3,,N0630,43.74661598,-79.43591064,309945.994,4844964.303
183953,4154690,,M3H,2017,2021,1950,PRIVATE,6,York Centre,4109 BATHURST ST,3,10,2021-04-16,63,Evaluation needs to be conducted in 1 year,16,3,3,3,3,3,3,,4,,3,3,3,5,3,3,3,,2,3,,N0630,43.74640739,-79.43586259,309949.881,4844941.132
183954,4155174,,M6N,2017,2021,1965,PRIVATE,5,York South-Weston,8 CASTLETON AVE,3,17,2021-04-16,86,Evaluation needs to be conducted in 3 years,14,4,4,5,4,,5,,4,,,4,5,5,4,4,4,,4,4,,W0539,43.66917755,-79.4863066,305888.622,4836358.478
183955,4155181,,M6N,2017,2021,1964,PRIVATE,5,York South-Weston,787 JANE ST,9,107,2021-04-16,69,Evaluation needs to be conducted in 2 years,18,3,3,4,3,3,4,3,4,4,,3,4,5,4,3,3,3,3,3,,W0539,43.67346521,-79.49377897,305286.007,4836834.748
183956,4155280,J&F GONCALVES,M8Y,2017,2021,1952,PRIVATE,3,Etobicoke-Lakeshore,164 BERRY RD,3,27,2021-04-15,69,Evaluation needs to be conducted in 2 years,17,4,4,3,4,4,4,,3,,3,4,3,3,3,3,3,4,3,4,,W0327,43.6369236,-79.49106039,305505.601,4832775.234
183957,4153966,,M5N,2017,2021,1953,PRIVATE,8,Eglinton-Lawrence,2100 BATHURST ST,5,62,2021-04-15,83,Evaluation needs to be conducted in 3 years,19,4,4,5,4,4,4,4,4,4,4,4,4,5,4,4,4,5,4,4,,N0832,43.70379948,-79.4264105,310715.567,4840207.343
183958,4155080,,M6M,2017,2021,1975,PRIVATE,5,York South-Weston,2501 EGLINTON AVE W,4,25,2021-04-15,80,Evaluation needs to be conducted in 2 years,18,4,4,5,4,4,5,,4,4,3,4,5,5,3,4,4,3,4,3,,W0537,43.69107315,-79.46971306,307225.981,4838791.27
183959,4153968,TCH,M6B,2017,2021,1985,TCHC,8,Eglinton-Lawrence,145 ELM RIDGE DR,9,53,2021-04-15,76,Evaluation needs to be conducted in 2 years,18,4,3,5,3,3,4,3,4,4,,4,4,4,3,4,4,4,4,4,,N0832,43.70257671,-79.4383003,309757.376,4840070.68
183960,4155803,GREENWIN,,2017,2021,2012,TCHC,10,Spadina-Fort York,150 DAN LECKIE WAY,41,298,2021-04-15,91,Evaluation needs to be conducted in 3 years,17,5,5,5,4,5,4,5,4,3,,4,5,5,5,5,5,,4,4,,S1035,,,312970.465,4833094.847
183961,4155188,JASPER HOMES,M6N,2017,2021,1954,PRIVATE,5,York South-Weston,2 JASPER AVE,3,22,2021-04-15,62,Evaluation needs to be conducted in 1 year,17,3,3,3,3,3,3,,3,,3,3,3,5,3,3,3,3,3,3,,W0535,43.68350751,-79.48301258,306153.977,4837950.505
183962,4285984,TCH,,2017,2021,2009,TCHC,13,Toronto Centre,252 SACKVILLE ST,22,159,2021-04-15,84,Evaluation needs to be conducted in 3 years,19,4,4,4,4,4,5,4,4,4,,4,4,5,5,4,5,4,5,3,4,S1330,43.66050088,-79.36342677,315793.319,4835425.091
183963,4155184,MECKK PROPERTIES LIMITED,M6N,2017,2021,1972,PRIVATE,5,York South-Weston,1059 WESTON RD,3,14,2021-04-15,67,Evaluation needs to be conducted in 2 years,15,3,3,3,4,3,4,,4,,,3,4,4,3,3,3,,3,3,,W0535,43.68559997,-79.48620763,305896.352,4838182.921
183964,4155185,,M6N,2019,2021,1952,PRIVATE,5,York South-Weston,1061 WESTON RD,3,11,2021-04-15,67,Evaluation needs to be conducted in 2 years,15,3,3,3,3,3,4,,4,,,3,4,5,3,3,3,,3,3,,W0535,43.68571672,-79.48639999,305880.842,4838195.889
183965,4154365,,M3K,2017,2021,1955,PRIVATE,6,York Centre,831 WILSON AVE,3,11,2021-04-15,61,Evaluation needs to be conducted in 1 year,15,3,3,2,3,2,3,,3,,,3,4,5,3,3,3,,3,3,,N0632,43.73124621,-79.46304492,307761.609,4843254.517
183966,4155090,,M6M,2017,2021,1950,PRIVATE,5,York South-Weston,2 GLENHAVEN ST,4,24,2021-04-15,78,Evaluation needs to be conducted in 2 years,17,4,4,5,4,4,3,,3,,4,4,5,5,4,4,4,3,4,2,,W0533,43.6915636,-79.47008372,307196.082,4838845.745
183967,4167455,GREENWIN,,2017,2021,2000,TCHC,10,Spadina-Fort York,146 FORT YORK BLVD,7,25,2021-04-15,93,Evaluation needs to be conducted in 3 years,16,5,5,5,4,4,4,5,4,4,,5,5,5,5,5,5,,4,,,S1028,43.63931274,-79.39910732,,
183968,4153215,,M5R,2018,2021,1989,TCHC,11,University-Rosedale,25 MADISON AVE,4,12,2021-04-15,68,Evaluation needs to be conducted in 2 years,16,3,3,5,3,3,4,,4,,3,3,3,3,3,4,4,3,3,,,S1127,43.66834144,-79.40263254,312636.214,4836270.93
183969,4152839,DEL MANAGMENT,M1E,2017,2021,1974,TCHC,24,Scarborough-Guildwood,4175 LAWRENCE AVE E,13,375,2021-04-15,76,Evaluation needs to be conducted in 2 years,19,3,3,4,4,3,4,3,5,4,,3,4,5,3,3,4,5,4,4,4,E2432,43.76723421,-79.18881372,329838.377,4847298.753
183970,4152838,,M1E,2017,2021,1985,SOCIAL HOUSING,24,Scarborough-Guildwood,4201-4203 KINGSTON RD,3,39,2021-04-15,66,Evaluation needs to be conducted in 2 years,16,3,4,3,3,3,3,,3,,,3,3,5,4,3,3,3,4,3,,E2432,43.76025533,-79.19595279,329266.458,4846521.28
183971,4154443,1636367 ONTARIO INC,M3M,2017,2021,1955,PRIVATE,6,York Centre,3018 KEELE ST,4,31,2021-04-15,61,Evaluation needs to be conducted in 1 year,15,3,3,3,3,3,3,,3,,,2,4,5,3,3,3,,3,2,,N0627,43.73758588,-79.48507467,305986.793,4843958.284
183972,4153036,OWNER MANAGED,M6K,2017,2021,1916,PRIVATE,4,Parkdale-High Park,1384 KING ST W,3,18,2021-04-15,68,Evaluation needs to be conducted in 2 years,16,3,4,4,3,3,3,,3,,3,4,4,3,3,4,3,3,4,,,S0436,43.63760469,-79.43500911,310028.218,4832852.784
183973,4283407,FRED VICTOR CENTRE,,2019,2021,,SOCIAL HOUSING,13,Toronto Centre,20 PALACE ST,10,108,2021-04-15,89,Evaluation needs to be conducted in 3 years,18,4,5,5,5,4,5,4,4,4,,4,4,5,5,4,5,,4,5,4,S1336,43.65378481,-79.35666541,316346.038,4834659.18
183974,4155581,DEL MANAGEMENT,M1E,2017,2021,1971,TCHC,24,Scarborough-Guildwood,90 MORNELLE CRT,13,198,2021-04-15,74,Evaluation needs to be conducted in 2 years,19,4,4,4,3,4,3,3,4,4,,3,4,5,3,3,3,4,4,4,4,E2423,43.78781571,-79.19611664,329241.848,4849584.106
183975,4156324,FISHER KAY LIMITED,M3N,2017,2021,1972,PRIVATE,7,Humber River-Black Creek,2000 SHEPPARD AVE W,20,266,2021-04-15,79,Evaluation needs to be conducted in 2 years,20,4,4,4,4,4,4,4,4,4,3,3,4,5,3,4,4,4,4,4,5,W0729,43.73964798,-79.51485226,303547.403,4844129.347
183976,4152693,,M1K,2017,2021,1969,PRIVATE,21,Scarborough Centre,15 ROSEMOUNT DR,7,72,2021-04-15,76,Evaluation needs to be conducted in 2 years,19,5,3,3,4,5,4,5,3,5,5,3,3,4,3,4,4,3,3,3,,E2133,43.73226969,-79.27410306,322982.267,4843392.233
183977,4418699,RAM-LAND PROPERTY MANAGEMENT,M3H,2021,2021,1955,PRIVATE,6,York Centre,7 ROSSEAU RD,3,11,2021-04-15,75,Evaluation needs to be conducted in 2 years,16,4,4,5,3,3,4,,3,,3,3,4,5,4,4,4,,4,3,,N0629,43.74199308,-79.43642548,309905.166,4844449.718
183978,4257261,PARK PROPERTY MANAGEMENT INC.,M5B,2017,2021,1979,PRIVATE,13,Toronto Centre,20 CARLTON ST,16,216,2021-04-14,81,Evaluation needs to be conducted in 3 years,19,3,4,4,4,4,4,4,4,4,,4,4,5,4,4,4,5,4,4,4,S1326,43.6616304,-79.38157676,314335.611,4835526.693
183979,4154264,,M3N,2017,2021,1969,TCHC,7,Humber River-Black Creek,35 SHOREHAM DR,11,323,2021-04-14,87,Evaluation needs to be conducted in 3 years,19,4,4,5,4,5,5,4,4,5,,4,5,5,4,4,4,4,4,5,4,W0725,43.76878073,-79.51866347,303286.907,4847413.625
183980,4156154,TCH,M5G,2017,2021,1987,TCHC,10,Spadina-Fort York,111 CHESTNUT ST,15,144,2021-04-14,75,Evaluation needs to be conducted in 2 years,17,3,3,5,4,4,4,3,3,4,,4,4,5,3,4,4,,4,3,,S1025,43.65483797,-79.38558022,314013.801,4834771.619
183981,4155157,,M9N,2017,2021,1963,PRIVATE,5,York South-Weston,29 CHURCH ST,10,63,2021-04-14,74,Evaluation needs to be conducted in 2 years,17,3,4,4,3,3,3,,4,4,,3,3,5,5,4,4,4,4,3,,W0524,43.70375048,-79.52345643,302893.972,4840199.653
183982,4155279,,M8Y,2017,2021,1952,PRIVATE,3,Etobicoke-Lakeshore,162 BERRY RD,4,39,2021-04-14,80,Evaluation needs to be conducted in 2 years,18,4,4,4,3,4,4,,4,,4,4,4,5,4,4,4,4,4,4,4,W0327,43.63712334,-79.49046893,305553.339,4832797.429
183983,4155567,DEL MANAGEMENT,M1K,2017,2021,1972,TCHC,21,Scarborough Centre,1021 BIRCHMOUNT RD,11,236,2021-04-14,77,Evaluation needs to be conducted in 2 years,19,4,3,5,3,4,5,3,5,4,,3,3,3,5,3,3,5,5,3,4,E2133,43.73164966,-79.27790395,322675.987,4843323.474
183984,4156756,DEL MANAGMENT,M6M,2017,2021,1989,TCHC,5,York South-Weston,2468 EGLINTON AVE W,21,210,2021-04-14,67,Evaluation needs to be conducted in 2 years,19,3,3,4,4,3,3,4,3,4,,3,4,5,3,3,3,3,3,3,3,W0533,43.69202835,-79.46814074,307352.43,4838898.385
183985,4153044,,M6K,2017,2021,1980,TCHC,4,Parkdale-High Park,300 DUFFERIN ST,7,114,2021-04-14,82,Evaluation needs to be conducted in 3 years,18,4,4,4,3,5,4,5,4,4,,4,4,5,4,3,4,4,5,4,,S0436,43.63955188,-79.4281872,310578.464,4833069.527
183986,4154402,S & T INC,M3M,2017,2021,1964,PRIVATE,6,York Centre,2219 JANE ST,3,12,2021-04-14,63,Evaluation needs to be conducted in 1 year,16,3,3,3,3,3,3,3,3,,,3,3,5,3,3,3,,3,3,,N0627,43.72359997,-79.50892215,304065.665,4842404.48
183987,4154403,S & T  TWO INC,M3M,2017,2021,1964,PRIVATE,6,York Centre,2221 JANE ST,3,12,2021-04-14,67,Evaluation needs to be conducted in 2 years,17,4,4,3,4,3,3,3,3,,,3,3,5,3,3,3,3,4,3,,N0627,43.72384021,-79.50897805,304061.165,4842431.169
183988,4154404,,M3M,2017,2021,1965,PRIVATE,6,York Centre,2233 JANE ST,5,39,2021-04-14,61,Evaluation needs to be conducted in 1 year,18,2,3,4,3,2,3,,4,4,3,3,3,4,3,3,3,2,3,3,,N0627,43.72468762,-79.5089653,304062.206,4842525.308
183989,4167772,TCH,M5A,2017,2021,1980,TCHC,10,Spadina-Fort York,49 HENRY LANE TER,5,15,2021-04-14,68,Evaluation needs to be conducted in 2 years,17,3,3,5,3,4,3,3,3,4,,3,4,3,3,4,4,3,3,,,S1038,43.64685916,-79.36967002,315285.761,4833893.711
183990,4264085,PARK PROPERTY MANAGEMENT INC.,M4Y,2017,2021,1979,PRIVATE,13,Toronto Centre,25 WOOD ST,26,284,2021-04-14,83,Evaluation needs to be conducted in 3 years,20,4,4,5,4,4,5,4,4,4,4,4,4,5,4,4,4,4,4,4,4,S1326,43.66225234,-79.38186852,314311.982,4835595.749
183991,4154512,FALCONWIN PROPERTY MNG,M6A,2017,2021,1956,PRIVATE,8,Eglinton-Lawrence,64 WASDALE CRES,3,15,2021-04-14,65,Evaluation needs to be conducted in 1 year,17,3,3,5,3,3,3,,2,,3,3,4,5,3,3,3,2,3,4,,N0823,43.73070784,-79.43777141,309797.687,4843195.944
183992,4154540,KNRS PROPERTIES INC,M6A,2017,2021,1956,PRIVATE,8,Eglinton-Lawrence,67 WASDALE CRES,3,11,2021-04-14,63,Evaluation needs to be conducted in 1 year,16,3,3,5,3,1,3,,2,,,2,3,4,3,4,3,3,4,4,,N0823,43.73006103,-79.43791105,309786.492,4843124.078
183993,4155171,,M9N,2017,2021,1959,PRIVATE,5,York South-Weston,2202 WESTON RD,6,97,2021-04-14,78,Evaluation needs to be conducted in 2 years,18,2,4,5,3,3,3,,5,4,3,3,4,5,4,4,5,5,4,4,,W0524,43.70325006,-79.52696639,302610.793,4840145.125
183994,4154503,DMS PROPERTY MANAGEMENT LTD,M6A,2017,2021,1959,PRIVATE,8,Eglinton-Lawrence,61 NEPTUNE DR,3,34,2021-04-14,73,Evaluation needs to be conducted in 2 years,18,4,3,5,3,3,4,,4,2,4,3,3,5,4,4,4,3,4,4,,N0823,43.73186882,-79.437466,309822.193,4843324.941
183995,4153335,,M6G,2017,2021,1980,TCHC,12,Toronto-St. Paul's,470 MELITA CRES,5,37,2021-04-14,77,Evaluation needs to be conducted in 2 years,18,5,4,5,4,4,4,,3,4,4,4,4,4,3,3,4,3,4,3,,S1234,43.67225343,-79.42665329,310698.713,4836703.584
183996,4152737,,M1P,2017,2021,1960,TCHC,21,Scarborough Centre,2950 LAWRENCE AVE E,6,200,2021-04-14,90,Evaluation needs to be conducted in 3 years,20,4,3,5,5,4,5,5,4,5,5,4,5,5,5,4,4,5,5,3,5,E2130,43.75523277,-79.2505927,324868.554,4845948.7
183997,4152830,,M1G,2017,2021,1967,PRIVATE,24,Scarborough-Guildwood,3950 LAWRENCE AVE E,15,164,2021-04-14,77,Evaluation needs to be conducted in 2 years,18,3,4,4,4,3,4,4,4,3,,4,4,5,4,4,4,4,4,3,,E2427,43.7649205,-79.20461393,328567.233,4847037.068
183998,4155583,DEL MANAGEMENT,M1E,2017,2021,1972,TCHC,24,Scarborough-Guildwood,4100 LAWRENCE AVE E,11,185,2021-04-14,82,Evaluation needs to be conducted in 3 years,18,4,4,4,4,3,4,5,5,5,,4,4,5,4,3,4,5,4,3,,E2428,43.76703953,-79.19549744,329267.349,4847214.382
183999,4285972,DEL MANAGMENT,M1E,2017,2021,1972,TCHC,24,Scarborough-Guildwood,4110 LAWRENCE AVE E,11,185,2021-04-14,82,Evaluation needs to be conducted in 3 years,19,4,4,4,4,5,4,4,4,4,,4,3,5,4,3,4,5,4,4,5,E2428,43.76738606,-79.19392214,329338.224,4847236.605
184000,4156254,1034523 ONTARIO LTD,M1N,2017,2021,1940,PRIVATE,20,Scarborough Southwest,1445 KINGSTON RD,3,14,2021-04-14,76,Evaluation needs to be conducted in 2 years,15,4,4,4,3,3,4,,3,,,4,4,4,4,4,4,,4,4,,E2034,43.68765166,-79.27054326,323273.62,4838437.409
184001,4156237,1034523 ONTARIO LTD,M1N,2017,2021,1940,PRIVATE,20,Scarborough Southwest,1469 KINGSTON RD,3,15,2021-04-14,72,Evaluation needs to be conducted in 2 years,15,3,4,3,4,3,4,,3,,,3,4,4,4,4,4,,3,4,,E2034,43.6882191,-79.26980053,323367.67,4838524.609
184002,4156236,1034523 ONTARIO LTD,M1N,2017,2021,1940,PRIVATE,20,Scarborough Southwest,1475 KINGSTON RD,3,14,2021-04-14,75,Evaluation needs to be conducted in 2 years,15,3,4,3,3,,4,,4,,,4,4,3,4,4,4,,4,4,4,E2034,43.68817271,-79.26943585,323380.727,4838536.898
184003,4153038,ANCHOR PROPERTY MANAGERS INC.,M6K,2020,2021,1890,PRIVATE,4,Parkdale-High Park,1340 KING ST W,4,16,2021-04-14,61,Evaluation needs to be conducted in 1 year,14,2,2,3,3,3,2,,2,,,3,4,5,3,4,3,,4,,,S0436,43.63795416,-79.4330334,310187.598,4832891.726
184004,4153578,TCH,M5A,2017,2021,1961,TCHC,13,Toronto Centre,230 RIVER ST,3,25,2021-04-14,80,Evaluation needs to be conducted in 2 years,16,3,4,5,3,3,4,4,4,,,4,3,4,4,5,5,,5,4,,S1327,43.66425409,-79.35984825,316087.611,4835820.851
184005,4156361,TCH,M6M,2017,2021,1990,TCHC,5,York South-Weston,600 ROGERS RD,9,207,2021-04-14,82,Evaluation needs to be conducted in 3 years,18,4,4,4,4,4,4,4,4,4,,4,5,5,4,4,4,,4,4,4,W0536,43.68222768,-79.47249628,306987.646,4837812.192
184006,4155593,TCH,M6G,2017,2021,1964,TCHC,11,University-Rosedale,177 PENDRITH ST,3,54,2021-04-14,76,Evaluation needs to be conducted in 2 years,19,4,4,5,3,4,3,4,4,,3,4,4,5,3,4,4,3,3,4,4,S1124,43.6655482,-79.42565567,310757.594,4836003.746
184007,4152847,EDELSTEIN APARTMENTS LTD.,M1E,2017,2021,1960,PRIVATE,24,Scarborough-Guildwood,290 MORNINGSIDE AVE,6,107,2021-04-14,69,Evaluation needs to be conducted in 2 years,19,3,3,4,3,3,4,3,3,3,3,3,3,5,4,4,4,4,3,4,,E2428,43.77173825,-79.18790555,329909.622,4847799.407
184008,4286252,TCH,M5A,2017,2021,1980,TCHC,13,Toronto Centre,45 ST LAWRENCE ST,4,50,2021-04-14,90,Evaluation needs to be conducted in 3 years,18,5,5,4,4,5,5,4,4,4,,4,4,5,5,4,5,,5,4,5,S1336,,,316378.169,4834907.149
184009,4153474,,M5A,2017,2021,1960,PRIVATE,13,Toronto Centre,166 CARLTON ST,11,92,2021-04-14,85,Evaluation needs to be conducted in 3 years,19,5,5,4,5,4,4,5,4,4,3,5,5,4,3,4,4,3,5,5,,S1326,43.66329822,-79.37380789,314961.659,4835713.815
184010,4153729,,M4W,2017,2021,1984,TCHC,11,University-Rosedale,40 ASQUITH AVE,17,192,2021-04-13,69,Evaluation needs to be conducted in 2 years,17,3,3,5,3,3,3,3,4,5,,3,4,4,3,3,3,,4,3,,S1129,43.67191084,-79.38519572,314041.906,4836669.309
184011,4153523,BETTER LIVING HOMES,M4X,2017,2021,1967,PRIVATE,13,Toronto Centre,540 SHERBOURNE ST,14,95,2021-04-13,89,Evaluation needs to be conducted in 3 years,17,5,5,5,4,5,5,,4,4,,4,5,5,4,4,4,5,4,4,,S1322,43.66912717,-79.37595854,314787.508,4836360.15
184012,4153042,,M6K,2017,2021,1957,PRIVATE,4,Parkdale-High Park,1 A ELM GROVE AVE,3,12,2021-04-13,69,Evaluation needs to be conducted in 2 years,13,2,3,3,2,,4,,4,,,2,4,5,4,4,4,,4,,,S0436,43.63868674,-79.43013473,310421.409,4832973.29
184013,4156073,,M1B,2018,2021,1992,SOCIAL HOUSING,25,Scarborough-Rouge Park,17 DURNFORD RD,3,14,2021-04-13,80,Evaluation needs to be conducted in 2 years,15,4,4,4,4,,4,,4,,,3,4,5,4,4,4,4,4,4,,E2530,43.7983552,-79.14960801,332968.256,4850790.927
184014,4156137,,M1B,2018,2021,1992,SOCIAL HOUSING,25,Scarborough-Rouge Park,19 DURNFORD RD,4,28,2021-04-13,77,Evaluation needs to be conducted in 2 years,19,4,4,4,4,4,4,4,3,3,4,3,4,5,4,4,4,4,4,3,,E2530,43.79879932,-79.14984862,332942.11,4850879.891
184015,4156138,,M1B,2018,2021,1992,SOCIAL HOUSING,25,Scarborough-Rouge Park,21 DURNFORD RD,4,21,2021-04-13,78,Evaluation needs to be conducted in 2 years,18,4,4,4,4,4,4,4,3,3,,4,4,5,4,4,3,4,4,4,,E2530,43.79892874,-79.14946215,332940.571,4850884.586
184016,4156339,,M1B,2018,2021,1992,SOCIAL HOUSING,25,Scarborough-Rouge Park,23 DURNFORD RD,3,14,2021-04-13,80,Evaluation needs to be conducted in 2 years,15,4,4,4,4,,4,,4,,,3,4,5,4,4,4,4,4,4,,E2530,43.79845735,-79.14924267,332939.033,4850889.281
184017,4156266,,M1B,2018,2021,1992,SOCIAL HOUSING,25,Scarborough-Rouge Park,35 DURNFORD RD,4,21,2021-04-13,79,Evaluation needs to be conducted in 2 years,18,4,4,4,4,4,4,4,4,3,,3,4,5,4,4,4,4,4,4,,E2530,43.79933465,-79.14962543,332929.799,4850917.452
184018,4155977,,M1B,2018,2021,1992,SOCIAL HOUSING,25,Scarborough-Rouge Park,37 DURNFORD RD,4,28,2021-04-13,78,Evaluation needs to be conducted in 2 years,18,4,4,4,4,4,4,4,3,3,,3,4,5,4,4,4,4,4,4,,E2530,43.79936022,-79.15004455,332928.261,4850922.146
184019,4156139,,M1B,2018,2021,1992,SOCIAL HOUSING,25,Scarborough-Rouge Park,39 DURNFORD RD,3,14,2021-04-13,80,Evaluation needs to be conducted in 2 years,16,4,4,4,4,4,4,,4,,,3,4,5,4,4,4,4,4,4,,E2530,43.79977185,-79.15026227,332926.722,4850926.841
184020,4153229,,M5R,2017,2021,1980,TCHC,11,University-Rosedale,18 DAVENPORT RD,16,128,2021-04-13,80,Evaluation needs to be conducted in 2 years,18,4,4,5,4,3,5,4,3,4,,5,4,5,4,4,4,4,3,3,,S1128,43.67311548,-79.38872594,313757.068,4836802.752
184021,4152590,,M1L,2017,2021,1978,TCHC,20,Scarborough Southwest,3330 DANFORTH AVE,10,194,2021-04-13,94,Evaluation needs to be conducted in 3 years,19,5,5,4,5,5,5,5,5,5,,4,5,5,5,4,5,5,4,4,4,E2028,43.69373042,-79.27861181,322630.485,4839109.71
184022,4153819,,M4P,2017,2021,1954,TCHC,12,Toronto-St. Paul's,133 BROADWAY AVE,4,52,2021-04-13,71,Evaluation needs to be conducted in 2 years,19,4,4,5,3,3,3,3,4,3,3,4,4,4,3,3,4,3,4,3,,S1221,43.71047346,-79.39189031,313496.527,4840952.816
184023,4153479,GREENWIN,M4Y,2017,2021,1993,TCHC,13,Toronto Centre,95 WOOD ST,8,72,2021-04-13,90,Evaluation needs to be conducted in 3 years,16,5,5,5,4,4,4,5,4,5,,4,5,5,4,4,4,,5,,,S1326,43.66278566,-79.37861058,314574.658,4835655.357
184024,4152604,,M4B,2019,2021,1954,PRIVATE,20,Scarborough Southwest,1051 VICTORIA PARK AVE,3,11,2021-04-13,68,Evaluation needs to be conducted in 2 years,16,3,4,4,4,3,4,,3,,4,3,3,4,4,2,3,,4,2,,E2028,43.70628235,-79.29457964,321339.639,4840501.868
184025,4152828,,M1G,2017,2021,1970,PRIVATE,24,Scarborough-Guildwood,40 TUXEDO CRT,16,216,2021-04-13,80,Evaluation needs to be conducted in 2 years,18,4,4,4,4,4,5,5,4,5,,4,5,5,3,3,4,3,3,3,,E2422,43.78126868,-79.23075977,326456.284,4848846.156
184026,4154959,,M6C,2017,2021,1955,PRIVATE,12,Toronto-St. Paul's,147 VAUGHAN RD,3,12,2021-04-13,70,Evaluation needs to be conducted in 2 years,14,3,4,5,3,3,3,,4,,,3,3,5,3,4,3,,3,,,S1229,43.68528166,-79.42148051,311114.77,4838150.394
184027,4155574,,M1K,2017,2021,1970,TCHC,21,Scarborough Centre,31 GILDER DR,18,190,2021-04-13,77,Evaluation needs to be conducted in 2 years,19,4,3,5,3,5,5,5,5,3,,3,3,2,3,4,5,4,3,4,4,E2134,43.73625509,-79.25631328,324416.792,4843867.719
184028,4268876,TCH,M1K,2017,2021,1980,TCHC,21,Scarborough Centre,81 GILDER DR,6,22,2021-04-13,86,Evaluation needs to be conducted in 3 years,19,5,3,5,5,4,5,4,5,4,,3,4,5,4,4,4,4,5,5,4,E2134,43.73645385,-79.25393559,324605.517,4843861.682
184029,4152576,,M1N,2017,2021,1970,TCHC,20,Scarborough Southwest,10 GLEN EVEREST RD,17,350,2021-04-13,82,Evaluation needs to be conducted in 3 years,18,4,4,4,4,4,4,4,4,4,,4,4,5,5,4,4,4,4,4,,E2035,43.69932241,-79.25477867,324549.538,4839737.34
184030,4155862,,M1N,2018,2021,1952,PRIVATE,20,Scarborough Southwest,46 GLEN EVEREST RD,3,16,2021-04-13,67,Evaluation needs to be conducted in 2 years,14,3,3,1,3,,4,,4,,,3,3,3,4,4,4,,4,4,,E2035,43.70168122,-79.2533015,324668.064,4839998.792
